[
  {
    "id": "93030dda-cef6-4091-acbf-0000ffa981d5",
    "locationName": "Paso bajito- Carretera Jarabacoa-Constanza",
    "cellId": "N3446",
    "address": null,
    "latitude": 19.0691,
    "longitude": -70.6117,
    "userId": null,
    "getRoutes": [],
    "getAlarm": null
  },
  {
    "id": "d220e657-3ff3-4158-9c72-00277f1efbae",
    "locationName": "Otra Banda-Nisibón 1",
    "cellId": "E6145",
    "address": null,
    "latitude": 18.82011111,
    "longitude": -68.61708333,
    "userId": null,
    "getRoutes": [],
    "getAlarm": null
  },
  {
    "id": "adb6ca8d-f95c-4c2f-97f7-00c1e84accbb",
    "locationName": "Plaza Universitaria",
    "cellId": "M1147",
    "address": null,
    "latitude": 18.45874,
    "longitude": -69.93191,
    "userId": null,
    "getRoutes": [],
    "getAlarm": null
  },
  {
    "id": "3b686ebf-f242-450c-87e2-0118fb1999f7",
    "locationName": "Cruce de Contrabas(Jima abajo)",
    "cellId": "N3194",
    "address": null,
    "latitude": 19.14336,
    "longitude": -70.43346,
    "userId": null,
    "getRoutes": [],
    "getAlarm": null
  },
  {
    "id": "7dce4992-8ed8-4ef9-bbea-011ee63eafe3",
    "locationName": "Villa Aida",
    "cellId": "S5127",
    "address": null,
    "latitude": 18.28975677,
    "longitude": -71.71533966,
    "userId": null,
    "getRoutes": [],
    "getAlarm": null
  },
  {
    "id": "2c83c9ca-3ab2-418f-9437-0124793f8ba4",
    "locationName": "Bahia de Ocoa",
    "cellId": "S5003",
    "address": null,
    "latitude": 18.4106,
    "longitude": -70.5853,
    "userId": null,
    "getRoutes": [],
    "getAlarm": null
  },
  {
    "id": "95228923-e222-42b3-8344-013c1814fabf",
    "locationName": "Haras Nacionales",
    "cellId": "M1345",
    "address": null,
    "latitude": 18.56744194,
    "longitude": -69.8855896,
    "userId": null,
    "getRoutes": [],
    "getAlarm": null
  },
  {
    "id": "04ff3c68-fbdc-4e69-b021-015203c25234",
    "locationName": "Gurabo Arriba, Santiago",
    "cellId": "N3234",
    "address": null,
    "latitude": 19.495831,
    "longitude": -70.653198,
    "userId": null,
    "getRoutes": [],
    "getAlarm": null
  },
  {
    "id": "8fbd20fa-af0f-4009-8d29-0169b46be4d4",
    "locationName": "Prado Oriental",
    "cellId": "M1417",
    "address": null,
    "latitude": 18.484606,
    "longitude": -69.778916,
    "userId": null,
    "getRoutes": [],
    "getAlarm": null
  },
  {
    "id": "9cca66e3-ac83-4a52-8690-019618ab105b",
    "locationName": "Sabana Yegua",
    "cellId": "S5072",
    "address": null,
    "latitude": 18.458956,
    "longitude": -70.834553,
    "userId": null,
    "getRoutes": [],
    "getAlarm": null
  },
  {
    "id": "9e1a64a9-cd18-4308-b8e3-01a260f3d8c9",
    "locationName": "Vista Alegre, Otra Banda",
    "cellId": "E6075",
    "address": null,
    "latitude": 18.736111,
    "longitude": -68.655667,
    "userId": null,
    "getRoutes": [],
    "getAlarm": null
  },
  {
    "id": "d11cd165-9548-4f42-a1d4-01a993eec8a7",
    "locationName": "Cuesta Hermosa III",
    "cellId": "M1162",
    "address": null,
    "latitude": 18.51079,
    "longitude": -69.94301,
    "userId": null,
    "getRoutes": [],
    "getAlarm": null
  },
  {
    "id": "58ac94fb-95c7-4cfb-ba50-01d3a354f79c",
    "locationName": "Villa Navarro - Hato Mayor II",
    "cellId": "E6126",
    "address": null,
    "latitude": 18.775864,
    "longitude": -69.25562,
    "userId": null,
    "getRoutes": [],
    "getAlarm": null
  },
  {
    "id": "52e995b2-4222-4aac-937d-01fdcc152e19",
    "locationName": "La Diferencia, Sajoma",
    "cellId": "N3286",
    "address": null,
    "latitude": 19.27402,
    "longitude": -71.06143,
    "userId": null,
    "getRoutes": [],
    "getAlarm": null
  },
  {
    "id": "8c0b767b-b9ff-4f0b-8bf4-0206ce134e1c",
    "locationName": "Alcarrizos III",
    "cellId": "M1103",
    "address": null,
    "latitude": 18.52354,
    "longitude": -70.05061,
    "userId": null,
    "getRoutes": [],
    "getAlarm": null
  },
  {
    "id": "bdd28f23-293e-4620-a13f-020f703a78cd",
    "locationName": "San Cristobal - Palenque 3",
    "cellId": "S5083",
    "address": null,
    "latitude": 18.351722,
    "longitude": -70.074444,
    "userId": null,
    "getRoutes": [],
    "getAlarm": null
  },
  {
    "id": "ea449cd2-6e77-4b8d-9d21-0254f77ca7d1",
    "locationName": "Torre Silver Sun",
    "cellId": "M1314",
    "address": null,
    "latitude": 18.47588921,
    "longitude": -69.92722321,
    "userId": null,
    "getRoutes": [],
    "getAlarm": null
  },
  {
    "id": "e3ddb615-b6d6-4351-914f-025818683df7",
    "locationName": "Costa Bávaro - Bibijagua (PTI)",
    "cellId": "E6133",
    "address": null,
    "latitude": 18.669592,
    "longitude": -68.407499,
    "userId": null,
    "getRoutes": [],
    "getAlarm": null
  },
  {
    "id": "df06fea6-0eff-4b77-a823-0290de619fc9",
    "locationName": "Laguna Nisibón",
    "cellId": "E6048",
    "address": null,
    "latitude": 18.8386,
    "longitude": -68.67096,
    "userId": null,
    "getRoutes": [],
    "getAlarm": null
  },
  {
    "id": "37252c2a-32d7-45df-8100-031d9cdf5a6d",
    "locationName": "San Pedro IX",
    "cellId": "E6121",
    "address": null,
    "latitude": 18.45925,
    "longitude": -69.3142,
    "userId": null,
    "getRoutes": [],
    "getAlarm": null
  },
  {
    "id": "b4359263-d233-47e5-b6d9-03a56494159b",
    "locationName": "Bani II",
    "cellId": "S5100",
    "address": null,
    "latitude": 18.29159,
    "longitude": -70.33639,
    "userId": null,
    "getRoutes": [],
    "getAlarm": null
  },
  {
    "id": "7ff35c1b-78b8-4ad1-9286-03bfe41e76fc",
    "locationName": "Gualete",
    "cellId": "N3207",
    "address": null,
    "latitude": 19.76258,
    "longitude": -71.12369,
    "userId": null,
    "getRoutes": [],
    "getAlarm": null
  },
  {
    "id": "7c9228f9-6679-4f10-b52b-0401f15a8b7a",
    "locationName": "Lucerna",
    "cellId": "M1052",
    "address": null,
    "latitude": 18.52022,
    "longitude": -69.84462,
    "userId": null,
    "getRoutes": [],
    "getAlarm": null
  },
  {
    "id": "dd5f3098-fe8e-4130-9e0c-041c9f7a85c8",
    "locationName": "Villa Olimpica - La Caleta",
    "cellId": "M1259",
    "address": null,
    "latitude": 18.4615888,
    "longitude": -69.6683,
    "userId": null,
    "getRoutes": [],
    "getAlarm": null
  },
  {
    "id": "bf433c11-2127-405c-9919-045202b93d1b",
    "locationName": "Sajoma",
    "cellId": "N3160",
    "address": null,
    "latitude": 19.33999,
    "longitude": -70.93849,
    "userId": null,
    "getRoutes": [],
    "getAlarm": null
  },
  {
    "id": "69d342a8-7e7e-4d0e-8876-04cb059405f6",
    "locationName": "Fuerza Aerea II",
    "cellId": "M1299",
    "address": null,
    "latitude": 18.52661,
    "longitude": -69.76015,
    "userId": null,
    "getRoutes": [],
    "getAlarm": null
  },
  {
    "id": "e60e727a-554c-4b35-abec-04eb41510170",
    "locationName": "El Baden",
    "cellId": "S5123",
    "address": null,
    "latitude": 18.80639,
    "longitude": -71.23228,
    "userId": null,
    "getRoutes": [],
    "getAlarm": null
  },
  {
    "id": "2762f04e-e810-4e01-b66f-0524486f1c74",
    "locationName": "Los Botados",
    "cellId": "E6139",
    "address": null,
    "latitude": 18.73739,
    "longitude": -69.99866,
    "userId": null,
    "getRoutes": [],
    "getAlarm": null
  },
  {
    "id": "41c2fc78-e62d-47ef-a628-053e6f6d9047",
    "locationName": "Barrio el Cercado",
    "cellId": "N3315",
    "address": null,
    "latitude": 18.91076,
    "longitude": -70.75125,
    "userId": null,
    "getRoutes": [],
    "getAlarm": null
  },
  {
    "id": "954cb2f1-3543-4bf7-9b98-055116fecc6f",
    "locationName": "Calle Nicolas Cuello - Barahona",
    "cellId": "S5224",
    "address": null,
    "latitude": 18.21268463,
    "longitude": -71.11404419,
    "userId": null,
    "getRoutes": [],
    "getAlarm": null
  },
  {
    "id": "1b2f7988-227c-433c-bf68-05b5f370e7dc",
    "locationName": "Bani III ( Boca Canasta )",
    "cellId": "S5101",
    "address": null,
    "latitude": 18.2557,
    "longitude": -70.3337,
    "userId": null,
    "getRoutes": [],
    "getAlarm": null
  },
  {
    "id": "6f2f3384-1f78-46c8-8926-05ce767c3675",
    "locationName": "Carr Oviedo-Pedernales II",
    "cellId": "S5263",
    "address": null,
    "latitude": 17.926,
    "longitude": -71.4984,
    "userId": null,
    "getRoutes": [],
    "getAlarm": null
  },
  {
    "id": "d48fb94e-03ac-4941-b63b-05d2ea8b3831",
    "locationName": "Hotel Iberostar-Puerto Plata (Sharing)",
    "cellId": "N3386",
    "address": null,
    "latitude": 19.77391,
    "longitude": -70.65682,
    "userId": null,
    "getRoutes": [],
    "getAlarm": null
  },
  {
    "id": "de6031c4-f46e-43fd-804d-0630cb6e34e1",
    "locationName": "Moca II",
    "cellId": "N3117",
    "address": null,
    "latitude": 19.38369,
    "longitude": -70.53506,
    "userId": null,
    "getRoutes": [],
    "getAlarm": null
  },
  {
    "id": "04c387cb-fdbe-41c7-91e4-0670f852876c",
    "locationName": "Rio Soco",
    "cellId": "E6056",
    "address": null,
    "latitude": 18.45553,
    "longitude": -69.210793,
    "userId": null,
    "getRoutes": [],
    "getAlarm": null
  },
  {
    "id": "5cb3b1d1-9949-41e4-a907-06bc01bf6503",
    "locationName": "El Naranjal",
    "cellId": "S5151",
    "address": null,
    "latitude": 18.56024,
    "longitude": -70.47386,
    "userId": null,
    "getRoutes": [],
    "getAlarm": null
  },
  {
    "id": "095709de-07d7-4ae3-a631-06fac533a802",
    "locationName": "La Julia",
    "cellId": "M1041",
    "address": null,
    "latitude": 18.45974,
    "longitude": -69.92771,
    "userId": null,
    "getRoutes": [],
    "getAlarm": null
  },
  {
    "id": "b5b29fd1-ead4-4e12-ac2a-07fca187bab2",
    "locationName": "Los Martinez, Baní",
    "cellId": "S5234",
    "address": null,
    "latitude": 18.4608,
    "longitude": -70.46208,
    "userId": null,
    "getRoutes": [],
    "getAlarm": null
  },
  {
    "id": "79b37457-848b-4de5-98d5-088e177c1efe",
    "locationName": "Barrio Prosperidad,Bonao",
    "cellId": "N3350",
    "address": null,
    "latitude": 18.93196,
    "longitude": -70.41158,
    "userId": null,
    "getRoutes": [],
    "getAlarm": null
  },
  {
    "id": "68f8ff49-19ee-4fad-8b77-08bf33fa515f",
    "locationName": "Las Antillas",
    "cellId": "N3026",
    "address": null,
    "latitude": 19.49134,
    "longitude": -70.72181,
    "userId": null,
    "getRoutes": [],
    "getAlarm": null
  },
  {
    "id": "e4da0dbb-f835-495e-9363-08e6d7cb4956",
    "locationName": "Bahía De Las Aguilas",
    "cellId": "S5138",
    "address": null,
    "latitude": 17.86226,
    "longitude": -71.6389,
    "userId": null,
    "getRoutes": [],
    "getAlarm": null
  },
  {
    "id": "f988f885-c929-4d4a-884c-0921d0f9f483",
    "locationName": "Indomina",
    "cellId": "E6124",
    "address": null,
    "latitude": 18.45710945,
    "longitude": -69.4240799,
    "userId": null,
    "getRoutes": [],
    "getAlarm": null
  },
  {
    "id": "78bae904-9a67-4c59-b2a5-092455d22a90",
    "locationName": "Ravi Caribe",
    "cellId": "M1297",
    "address": null,
    "latitude": 18.51426,
    "longitude": -69.9044,
    "userId": null,
    "getRoutes": [],
    "getAlarm": null
  },
  {
    "id": "225b4146-2a63-407d-9905-094d241ed8e8",
    "locationName": "San Miguel Navarrete",
    "cellId": "N3492",
    "address": null,
    "latitude": 19.55787086,
    "longitude": -70.88883972,
    "userId": null,
    "getRoutes": [],
    "getAlarm": null
  },
  {
    "id": "d6fe1fb1-673f-4c80-a4fd-0957ccb89667",
    "locationName": "Juan Santiago(Elias Piña)",
    "cellId": "S5095",
    "address": null,
    "latitude": 18.701944,
    "longitude": -71.588556,
    "userId": null,
    "getRoutes": [],
    "getAlarm": null
  },
  {
    "id": "8b1f0d6f-89bb-4f26-88af-0990609eae92",
    "locationName": "Sabana Larga(San Jose de Ocoa)",
    "cellId": "S5078",
    "address": null,
    "latitude": 18.584928,
    "longitude": -70.497738,
    "userId": null,
    "getRoutes": [],
    "getAlarm": null
  },
  {
    "id": "14e24dca-dff4-491f-b8d0-099819d5fa4e",
    "locationName": "Nizao",
    "cellId": "S5047",
    "address": null,
    "latitude": 18.248438,
    "longitude": -70.211963,
    "userId": null,
    "getRoutes": [],
    "getAlarm": null
  },
  {
    "id": "946ec02f-1666-401c-83b6-0998700f2cc9",
    "locationName": "Cardon",
    "cellId": "S5250",
    "address": null,
    "latitude": 18.71233,
    "longitude": -71.18309,
    "userId": null,
    "getRoutes": [],
    "getAlarm": null
  },
  {
    "id": "d68a815b-ec5c-4dbc-8efc-09a9ad6d2105",
    "locationName": "La Vega IV",
    "cellId": "N3085",
    "address": null,
    "latitude": 19.24414,
    "longitude": -70.52979,
    "userId": null,
    "getRoutes": [],
    "getAlarm": null
  },
  {
    "id": "c55f4e9b-ad31-4630-a6d3-09e3aad79687",
    "locationName": "Villa Cerro Higüey",
    "cellId": "E6265",
    "address": null,
    "latitude": 18.641289,
    "longitude": -68.717977,
    "userId": null,
    "getRoutes": [],
    "getAlarm": null
  },
  {
    "id": "c8112b38-0b9f-434e-b52f-0a1a4a0a0934",
    "locationName": "Blanco Repetidor",
    "cellId": "N3435",
    "address": null,
    "latitude": 19.5361,
    "longitude": -70.28703,
    "userId": null,
    "getRoutes": [],
    "getAlarm": null
  },
  {
    "id": "0070c082-2592-419a-b19a-0a4d8083e796",
    "locationName": "Cruce Monte Plata- Bayaguana",
    "cellId": "E6211",
    "address": null,
    "latitude": 18.76615,
    "longitude": -69.75716,
    "userId": null,
    "getRoutes": [],
    "getAlarm": null
  },
  {
    "id": "7bed3fa4-3df6-4c9e-b173-0a546bb5e2af",
    "locationName": "Higuey VIII",
    "cellId": "E6095",
    "address": null,
    "latitude": 18.60858,
    "longitude": -68.70758,
    "userId": null,
    "getRoutes": [],
    "getAlarm": null
  },
  {
    "id": "cd812d88-a826-4bec-b076-0aad2cf96f30",
    "locationName": "El Eden",
    "cellId": "N3475",
    "address": null,
    "latitude": 18.91217,
    "longitude": -70.74355,
    "userId": null,
    "getRoutes": [],
    "getAlarm": null
  },
  {
    "id": "f210287e-2be9-44d9-b093-0ab79dd14ddc",
    "locationName": "Ciudad Las Palmas- Punta Cana",
    "cellId": "E6250",
    "address": null,
    "latitude": 18.574437,
    "longitude": -68.418951,
    "userId": null,
    "getRoutes": [],
    "getAlarm": null
  },
  {
    "id": "0f599737-2a72-49a7-8097-0ad0921e03c5",
    "locationName": "Playa Bonita",
    "cellId": "N3419",
    "address": null,
    "latitude": 19.30941,
    "longitude": -69.56829,
    "userId": null,
    "getRoutes": [],
    "getAlarm": null
  },
  {
    "id": "f959cc7c-5a9d-481c-a51a-0b2bbb01b94f",
    "locationName": "Cruce de Matayaya",
    "cellId": "S5014",
    "address": null,
    "latitude": 18.8868,
    "longitude": -71.5868,
    "userId": null,
    "getRoutes": [],
    "getAlarm": null
  },
  {
    "id": "9facacb5-5627-4d29-9f1d-0b4936175b97",
    "locationName": "Supermercado El Pola",
    "cellId": "M1066",
    "address": null,
    "latitude": 18.45087,
    "longitude": -69.94619,
    "userId": null,
    "getRoutes": [],
    "getAlarm": null
  },
  {
    "id": "94affdf8-4e85-4c62-b277-0b683c791373",
    "locationName": "Cristobal ( Independencia )",
    "cellId": "S5105",
    "address": null,
    "latitude": 18.29389,
    "longitude": -71.29293,
    "userId": null,
    "getRoutes": [],
    "getAlarm": null
  },
  {
    "id": "f0785a0d-442c-4c89-ad8f-0b78da4d1051",
    "locationName": "Cerros de Gurabo",
    "cellId": "N3024",
    "address": null,
    "latitude": 19.46711,
    "longitude": -70.68152,
    "userId": null,
    "getRoutes": [],
    "getAlarm": null
  },
  {
    "id": "14bf179e-3e9f-4338-a82c-0b98a379c830",
    "locationName": "Parte Baja Los Tres Brazos",
    "cellId": "M1189",
    "address": null,
    "latitude": 18.518347,
    "longitude": -69.888336,
    "userId": null,
    "getRoutes": [],
    "getAlarm": null
  },
  {
    "id": "0d9c57fb-179f-4b77-893d-0bc3fa97e663",
    "locationName": "Puerto de Haina EXM",
    "cellId": "M1112",
    "address": null,
    "latitude": 18.42585,
    "longitude": -69.99765,
    "userId": null,
    "getRoutes": [],
    "getAlarm": null
  },
  {
    "id": "9ac9b4a4-a1ff-4b9c-bdc7-0bc9d9f8caa8",
    "locationName": "La Cuchilla, El Seibo",
    "cellId": "E6175",
    "address": null,
    "latitude": 18.829391,
    "longitude": -68.944962,
    "userId": null,
    "getRoutes": [],
    "getAlarm": null
  },
  {
    "id": "5caa9a0a-444c-4746-949f-0c14b5788e69",
    "locationName": "Sabana Rey",
    "cellId": "N3533",
    "address": null,
    "latitude": 19.211123,
    "longitude": -70.346564,
    "userId": null,
    "getRoutes": [],
    "getAlarm": null
  },
  {
    "id": "2c8ebec4-57b2-47e8-bac3-0c62e0ea6970",
    "locationName": "Guerra - Guavaberry III",
    "cellId": "E6070",
    "address": null,
    "latitude": 18.481944,
    "longitude": -69.5675,
    "userId": null,
    "getRoutes": [],
    "getAlarm": null
  },
  {
    "id": "7d2e4c45-c7da-4f0b-80ba-0c69ba5e86d8",
    "locationName": "Las Galeras",
    "cellId": "N3182",
    "address": null,
    "latitude": 19.29042,
    "longitude": -69.19122,
    "userId": null,
    "getRoutes": [],
    "getAlarm": null
  },
  {
    "id": "42b32e9e-2a52-42ad-b1f0-0d3f3605701f",
    "locationName": "Guayabo Rptdr",
    "cellId": "S5204",
    "address": null,
    "latitude": 18.977107,
    "longitude": -71.786107,
    "userId": null,
    "getRoutes": [],
    "getAlarm": null
  },
  {
    "id": "d2f1a1ab-390b-4993-bc47-0d72980c9510",
    "locationName": "Velazcasa ORM",
    "cellId": "M1113",
    "address": null,
    "latitude": 18.43001,
    "longitude": -69.97008,
    "userId": null,
    "getRoutes": [],
    "getAlarm": null
  },
  {
    "id": "15589634-9a9c-47b5-b5da-0d79a5843aee",
    "locationName": "Cruce de Salinas - Sabana de Buey",
    "cellId": "S5113",
    "address": null,
    "latitude": 18.23198,
    "longitude": -70.46418,
    "userId": null,
    "getRoutes": [],
    "getAlarm": null
  },
  {
    "id": "ee49a493-bb47-43cf-a692-0db13513d379",
    "locationName": "Loma La Hoz",
    "cellId": "S5215",
    "address": null,
    "latitude": 18.1674309,
    "longitude": -71.28124237,
    "userId": null,
    "getRoutes": [],
    "getAlarm": null
  },
  {
    "id": "621d273c-aad1-4b3a-8657-0e321bc901c2",
    "locationName": "Uvero Alto",
    "cellId": "E6065",
    "address": null,
    "latitude": 18.805675,
    "longitude": -68.584722,
    "userId": null,
    "getRoutes": [],
    "getAlarm": null
  },
  {
    "id": "81131883-edec-4fe8-b32a-0e35f138096c",
    "locationName": "Villa Bao",
    "cellId": "N3258",
    "address": null,
    "latitude": 19.44575,
    "longitude": -70.81424,
    "userId": null,
    "getRoutes": [],
    "getAlarm": null
  },
  {
    "id": "13cbe7db-67f9-4670-8776-0e7f9f90ddb9",
    "locationName": "PEDRO BRAND II",
    "cellId": "M1216",
    "address": null,
    "latitude": 18.56253,
    "longitude": -70.07563,
    "userId": null,
    "getRoutes": [],
    "getAlarm": null
  },
  {
    "id": "c5986834-8c2a-4970-9d89-0e820e120299",
    "locationName": "San Francisco V",
    "cellId": "N3318",
    "address": null,
    "latitude": 19.27973,
    "longitude": -70.24548,
    "userId": null,
    "getRoutes": [],
    "getAlarm": null
  },
  {
    "id": "5b8f697f-e6b2-4eb2-962c-0efb4ca922da",
    "locationName": "Kola Real",
    "cellId": "N3293",
    "address": null,
    "latitude": 19.49586,
    "longitude": -71.28284,
    "userId": null,
    "getRoutes": [],
    "getAlarm": null
  },
  {
    "id": "b484c249-9702-4b0f-a18e-0f64a5aa5f11",
    "locationName": "Campo de Tiro 3era Bga",
    "cellId": "S5010",
    "address": null,
    "latitude": 18.71091,
    "longitude": -71.06976,
    "userId": null,
    "getRoutes": [],
    "getAlarm": null
  },
  {
    "id": "334cc6af-37c2-48d1-9d21-0f6b91da8080",
    "locationName": "Colinas del Seminario",
    "cellId": "M1170",
    "address": null,
    "latitude": 18.49774,
    "longitude": -69.97824,
    "userId": null,
    "getRoutes": [],
    "getAlarm": null
  },
  {
    "id": "a0255b3e-10fb-40ab-b57e-0f7417ba5865",
    "locationName": "Nagua II",
    "cellId": "N3351",
    "address": null,
    "latitude": 19.3786,
    "longitude": -69.85364,
    "userId": null,
    "getRoutes": [],
    "getAlarm": null
  },
  {
    "id": "3778ada5-2e38-44d6-afed-0fa2380ca17e",
    "locationName": "Ave. Juan Pablo Duarte STGO",
    "cellId": "N3349",
    "address": null,
    "latitude": 19.45874023,
    "longitude": -70.68186188,
    "userId": null,
    "getRoutes": [],
    "getAlarm": null
  },
  {
    "id": "621a9e82-6e09-4fa8-8a59-0fc2c7e9be63",
    "locationName": "RPTR Las Matas de Farfán",
    "cellId": "S5256",
    "address": null,
    "latitude": 18.876708,
    "longitude": -71.511672,
    "userId": null,
    "getRoutes": [],
    "getAlarm": null
  },
  {
    "id": "f74e1394-ff7d-4247-b8a5-10094de479d7",
    "locationName": "Los Castillos",
    "cellId": "E6189",
    "address": null,
    "latitude": 18.64527,
    "longitude": -69.8707,
    "userId": null,
    "getRoutes": [],
    "getAlarm": null
  },
  {
    "id": "524bb161-537f-4a5a-954f-1032f95ab619",
    "locationName": "Alameda Oeste Tierra Llana",
    "cellId": "M1343",
    "address": null,
    "latitude": 18.48653221,
    "longitude": -69.99741364,
    "userId": null,
    "getRoutes": [],
    "getAlarm": null
  },
  {
    "id": "8a3c42f5-f5ee-4634-9515-1034b217aa18",
    "locationName": "Yerba Buena",
    "cellId": "E6129",
    "address": null,
    "latitude": 18.7816,
    "longitude": -69.3231,
    "userId": null,
    "getRoutes": [],
    "getAlarm": null
  },
  {
    "id": "76f2e5a6-af45-40b1-86cf-105828cf7f46",
    "locationName": "Brisas de Mendoza",
    "cellId": "M1388",
    "address": null,
    "latitude": 18.49754,
    "longitude": -69.8164,
    "userId": null,
    "getRoutes": [],
    "getAlarm": null
  },
  {
    "id": "3bd8460c-7b87-40f8-9bc6-107bddef29f0",
    "locationName": "Brisas del Norte",
    "cellId": "M1229",
    "address": null,
    "latitude": 18.45406,
    "longitude": -69.6439,
    "userId": null,
    "getRoutes": [],
    "getAlarm": null
  },
  {
    "id": "1e928f24-43d9-4837-96de-10954bebe653",
    "locationName": "Palo Amarillo",
    "cellId": "N3265",
    "address": null,
    "latitude": 19.39918,
    "longitude": -70.66971,
    "userId": null,
    "getRoutes": [],
    "getAlarm": null
  },
  {
    "id": "20e444fa-6e8c-4a93-939a-10a872ce1bb0",
    "locationName": "Ensanche La Fe",
    "cellId": "M1272",
    "address": null,
    "latitude": 18.48914,
    "longitude": -69.92048,
    "userId": null,
    "getRoutes": [],
    "getAlarm": null
  },
  {
    "id": "144598e7-00bf-4942-b856-10cd98503329",
    "locationName": "Los Frailes SDE",
    "cellId": "M1325",
    "address": null,
    "latitude": 18.48153,
    "longitude": -69.81101,
    "userId": null,
    "getRoutes": [],
    "getAlarm": null
  },
  {
    "id": "21293858-00e2-4aed-8aa0-10eb79a7ee3e",
    "locationName": "Edificio Infotel",
    "cellId": "N3407",
    "address": null,
    "latitude": 19.45667,
    "longitude": -70.68513,
    "userId": null,
    "getRoutes": [],
    "getAlarm": null
  },
  {
    "id": "00fea982-f219-43b5-b987-117c6359d852",
    "locationName": "Prolongacion Ovando",
    "cellId": "M1019",
    "address": null,
    "latitude": 18.49862,
    "longitude": -69.929324,
    "userId": null,
    "getRoutes": [],
    "getAlarm": null
  },
  {
    "id": "ee19498a-330b-472a-9170-11c083e4106d",
    "locationName": "Guerra Guavaberry I",
    "cellId": "E6067",
    "address": null,
    "latitude": 18.81073,
    "longitude": -71.2541,
    "userId": null,
    "getRoutes": [],
    "getAlarm": null
  },
  {
    "id": "9a59bf8c-fac6-42e4-a772-11d5b4dd6b30",
    "locationName": "San Francisco Arriba - Moca",
    "cellId": "N3250",
    "address": null,
    "latitude": 19.44035,
    "longitude": -70.56174,
    "userId": null,
    "getRoutes": [],
    "getAlarm": null
  },
  {
    "id": "59adcc96-0114-4eeb-b92a-11dc0c5aa6e8",
    "locationName": "Carr Isabela - Estero Hondo",
    "cellId": "N3542",
    "address": null,
    "latitude": 19.85355,
    "longitude": -71.09958,
    "userId": null,
    "getRoutes": [],
    "getAlarm": null
  },
  {
    "id": "2d5ecb47-e2dc-4c8c-bffd-11f143660eed",
    "locationName": "Jarabacoa",
    "cellId": "N3067",
    "address": null,
    "latitude": 19.12628,
    "longitude": -70.64149,
    "userId": null,
    "getRoutes": [],
    "getAlarm": null
  },
  {
    "id": "21d553bc-9818-434a-b04a-120b49338f90",
    "locationName": "Cruce de Guayubín",
    "cellId": "N3034",
    "address": null,
    "latitude": 19.70215,
    "longitude": -71.35034,
    "userId": null,
    "getRoutes": [],
    "getAlarm": null
  },
  {
    "id": "e9e54807-81fb-448d-b2a8-1233d5a0b6de",
    "locationName": "Dajabon",
    "cellId": "N3040",
    "address": null,
    "latitude": 19.55029,
    "longitude": -71.70726,
    "userId": null,
    "getRoutes": [],
    "getAlarm": null
  },
  {
    "id": "4ff6a694-0b33-4bf5-aec6-123be4e82bed",
    "locationName": "Invi-CEA Bajos de Haina",
    "cellId": "S5274",
    "address": null,
    "latitude": 18.424738,
    "longitude": -70.0268899,
    "userId": null,
    "getRoutes": [],
    "getAlarm": null
  },
  {
    "id": "81eeab3d-92e8-49a3-8f86-124d2566e1bb",
    "locationName": "Das Remoto Cacique I",
    "cellId": "M1331",
    "address": null,
    "latitude": 18.44556999,
    "longitude": -69.93276215,
    "userId": null,
    "getRoutes": [],
    "getAlarm": null
  },
  {
    "id": "ba91e63e-c3e5-4a80-b1fa-126de7d44da8",
    "locationName": "Fundacion - Bani",
    "cellId": "S5195",
    "address": null,
    "latitude": 18.28361,
    "longitude": -70.32182,
    "userId": null,
    "getRoutes": [],
    "getAlarm": null
  },
  {
    "id": "e83c8a93-9297-44ce-9cef-126e7836fa97",
    "locationName": "San Francisco Vicentillo",
    "cellId": "E6162",
    "address": null,
    "latitude": 18.892354,
    "longitude": -69.198267,
    "userId": null,
    "getRoutes": [],
    "getAlarm": null
  },
  {
    "id": "6dd3d176-a7a1-4f90-b3c0-12af6c24da72",
    "locationName": "Pueblo Nuevo(mao)",
    "cellId": "N4001",
    "address": null,
    "latitude": 19.58083,
    "longitude": -71.16722,
    "userId": null,
    "getRoutes": [],
    "getAlarm": null
  },
  {
    "id": "fee5c276-c196-424a-8595-130e42762366",
    "locationName": "Nicole M II(Multicentro Churchill)",
    "cellId": "M1146",
    "address": null,
    "latitude": 18.47315,
    "longitude": -69.94348,
    "userId": null,
    "getRoutes": [],
    "getAlarm": null
  },
  {
    "id": "584a173f-b937-4a44-aadf-13223c3d0bbe",
    "locationName": "Don Juan",
    "cellId": "E6134",
    "address": null,
    "latitude": 18.83614,
    "longitude": -69.94514,
    "userId": null,
    "getRoutes": [],
    "getAlarm": null
  },
  {
    "id": "27cb308b-b29f-4988-8252-1362a184fd62",
    "locationName": "Parque Energetico Los Mina",
    "cellId": "M1152",
    "address": null,
    "latitude": 18.50164,
    "longitude": -69.86891,
    "userId": null,
    "getRoutes": [],
    "getAlarm": null
  },
  {
    "id": "1b3cf0e2-65bc-4a62-911d-1370631915f1",
    "locationName": "Cruce La Bomba",
    "cellId": "E6197",
    "address": null,
    "latitude": 18.67395782,
    "longitude": -69.953125,
    "userId": null,
    "getRoutes": [],
    "getAlarm": null
  },
  {
    "id": "0d995cfb-1e43-4f07-8273-1393f7d8f9ce",
    "locationName": "Baldom",
    "cellId": "N3206",
    "address": null,
    "latitude": 19.486242,
    "longitude": -70.712311,
    "userId": null,
    "getRoutes": [],
    "getAlarm": null
  },
  {
    "id": "68fdaed9-1917-498c-a31b-13c3d37e13e6",
    "locationName": "San Fernando de Montecristi",
    "cellId": "N3335",
    "address": null,
    "latitude": 19.8482,
    "longitude": -71.63627,
    "userId": null,
    "getRoutes": [],
    "getAlarm": null
  },
  {
    "id": "cc66d331-a891-4df7-a9c2-14b3ecc5d190",
    "locationName": "Los Manantiales",
    "cellId": "E6207",
    "address": null,
    "latitude": 18.57328,
    "longitude": -68.3872,
    "userId": null,
    "getRoutes": [],
    "getAlarm": null
  },
  {
    "id": "6115fdf9-47ad-4498-9853-14bebfd8fb43",
    "locationName": "Gaston Fernando Deligne - Higuey",
    "cellId": "E6210",
    "address": null,
    "latitude": 18.63409,
    "longitude": -68.71553,
    "userId": null,
    "getRoutes": [],
    "getAlarm": null
  },
  {
    "id": "8273748f-ab9e-4893-8b21-14dbc0231b62",
    "locationName": "Loyola Centro de los Heroes",
    "cellId": "M1183",
    "address": null,
    "latitude": 18.45139,
    "longitude": -69.92409,
    "userId": null,
    "getRoutes": [],
    "getAlarm": null
  },
  {
    "id": "141f6765-ddbb-47b7-a566-14efc6f0e1e1",
    "locationName": "El Memizo",
    "cellId": "S5020",
    "address": null,
    "latitude": 18.4474,
    "longitude": -71.0928,
    "userId": null,
    "getRoutes": [],
    "getAlarm": null
  },
  {
    "id": "ab961fc6-fb5a-4487-8159-154cbe4b0bde",
    "locationName": "Cabarete",
    "cellId": "N3015",
    "address": null,
    "latitude": 19.75026,
    "longitude": -70.41497,
    "userId": null,
    "getRoutes": [],
    "getAlarm": null
  },
  {
    "id": "733b44cc-d0c1-455f-97e2-156a597ff9cf",
    "locationName": "Cow_E0098",
    "cellId": "E0098",
    "address": null,
    "latitude": 18.554794,
    "longitude": -68.384392,
    "userId": null,
    "getRoutes": [],
    "getAlarm": null
  },
  {
    "id": "c6ab0fc2-70da-4407-b264-156c2c4277bd",
    "locationName": "Obras Publicas",
    "cellId": "M1061",
    "address": null,
    "latitude": 18.4905,
    "longitude": -69.92791,
    "userId": null,
    "getRoutes": [],
    "getAlarm": null
  },
  {
    "id": "07ca42b6-fe3b-4cef-b871-158bd403e8fe",
    "locationName": "Pedernales",
    "cellId": "S5056",
    "address": null,
    "latitude": 18.0384,
    "longitude": -71.74559,
    "userId": null,
    "getRoutes": [],
    "getAlarm": null
  },
  {
    "id": "b18ed24b-a831-46f1-9ce8-15a74b186586",
    "locationName": "PLAZA DOWNTOWN CENTER",
    "cellId": "M1359",
    "address": null,
    "latitude": 18.4488,
    "longitude": -69.9538,
    "userId": null,
    "getRoutes": [],
    "getAlarm": null
  },
  {
    "id": "3802c03e-43bf-42a5-bff4-15bedab9fa22",
    "locationName": "Cristo Rey de Guaraguao",
    "cellId": "N3360",
    "address": null,
    "latitude": 19.11395,
    "longitude": -69.82984,
    "userId": null,
    "getRoutes": [],
    "getAlarm": null
  },
  {
    "id": "835a521b-2a6a-427c-870c-16072850f257",
    "locationName": "El Dean",
    "cellId": "E6148",
    "address": null,
    "latitude": 18.85016,
    "longitude": -69.89024,
    "userId": null,
    "getRoutes": [],
    "getAlarm": null
  },
  {
    "id": "3db730f8-23e1-4259-b282-161196888689",
    "locationName": "Constanza II",
    "cellId": "N4012",
    "address": null,
    "latitude": 19.01057,
    "longitude": -70.54191,
    "userId": null,
    "getRoutes": [],
    "getAlarm": null
  },
  {
    "id": "f24d027a-4999-4715-aa3e-163524c1e34c",
    "locationName": "Matanzas",
    "cellId": "S5044",
    "address": null,
    "latitude": 18.2428,
    "longitude": -70.41835,
    "userId": null,
    "getRoutes": [],
    "getAlarm": null
  },
  {
    "id": "756be8cb-793c-44a8-9d65-164a63fd4cb1",
    "locationName": "Las Yayas de Viajama",
    "cellId": "S5094",
    "address": null,
    "latitude": 18.608333,
    "longitude": -70.933056,
    "userId": null,
    "getRoutes": [],
    "getAlarm": null
  },
  {
    "id": "31b3eee1-c060-47c3-a19d-166583d3c628",
    "locationName": "Celda en el Corporativo",
    "cellId": "M1900",
    "address": null,
    "latitude": 18.48225,
    "longitude": -69.93406,
    "userId": null,
    "getRoutes": [],
    "getAlarm": null
  },
  {
    "id": "160178d9-b443-4714-8fa1-1674db582e4d",
    "locationName": "Colinas de los Rios",
    "cellId": "M1294",
    "address": null,
    "latitude": 18.49144,
    "longitude": -69.97474,
    "userId": null,
    "getRoutes": [],
    "getAlarm": null
  },
  {
    "id": "c99822a5-b1e9-4b82-904a-168446a83704",
    "locationName": "El Cachón- Villa Mella",
    "cellId": "M1290",
    "address": null,
    "latitude": 18.54000092,
    "longitude": -69.89228058,
    "userId": null,
    "getRoutes": [],
    "getAlarm": null
  },
  {
    "id": "3bd36fe7-83d7-4f07-bfc7-16b54679fa4e",
    "locationName": "Bayahibe II Hotel Viva Dominicus",
    "cellId": "E6109",
    "address": null,
    "latitude": 18.34998,
    "longitude": -68.83062,
    "userId": null,
    "getRoutes": [],
    "getAlarm": null
  },
  {
    "id": "ab134511-d0ff-4749-89ca-16ba847a0ccf",
    "locationName": "Cerros de Gurabo II",
    "cellId": "N3221",
    "address": null,
    "latitude": 19.47351,
    "longitude": -70.68016,
    "userId": null,
    "getRoutes": [],
    "getAlarm": null
  },
  {
    "id": "42e9923f-83a4-485a-b4f4-16d8279b802b",
    "locationName": "San Francisco IX",
    "cellId": "N3322",
    "address": null,
    "latitude": 19.28531,
    "longitude": -70.26204,
    "userId": null,
    "getRoutes": [],
    "getAlarm": null
  },
  {
    "id": "4252f091-5b69-482b-88b8-16dab31ba33e",
    "locationName": "FAD San Isidro",
    "cellId": "M1184",
    "address": null,
    "latitude": 18.50743,
    "longitude": -69.77259,
    "userId": null,
    "getRoutes": [],
    "getAlarm": null
  },
  {
    "id": "ebe4585c-ad0d-46df-9657-16de74a602e8",
    "locationName": "COOPROUNI - Zona Universitaria",
    "cellId": "M1341",
    "address": null,
    "latitude": 18.46240616,
    "longitude": -69.91146851,
    "userId": null,
    "getRoutes": [],
    "getAlarm": null
  },
  {
    "id": "7ee65a68-f80b-4e5e-8996-16df40dac45d",
    "locationName": "Loma Calimete Rptr",
    "cellId": "S5130",
    "address": null,
    "latitude": 18.7529,
    "longitude": -71.68973889,
    "userId": null,
    "getRoutes": [],
    "getAlarm": null
  },
  {
    "id": "cdc292a0-6600-44f4-b1a3-16feb6493059",
    "locationName": "Amina II",
    "cellId": "N3353",
    "address": null,
    "latitude": 19.52204,
    "longitude": -70.96646,
    "userId": null,
    "getRoutes": [],
    "getAlarm": null
  },
  {
    "id": "126a5f99-b336-44b9-ba17-1751d15319be",
    "locationName": "RIO GRANDE Altamira",
    "cellId": "N3279",
    "address": null,
    "latitude": 19.66259,
    "longitude": -70.77995,
    "userId": null,
    "getRoutes": [],
    "getAlarm": null
  },
  {
    "id": "644fdd9e-9998-4f6b-a404-1752ace98e5c",
    "locationName": "Saltitopa",
    "cellId": "M1193",
    "address": null,
    "latitude": 18.51976,
    "longitude": -70.03821,
    "userId": null,
    "getRoutes": [],
    "getAlarm": null
  },
  {
    "id": "17364462-1101-4296-bf66-1767723fe4b9",
    "locationName": "La Lomota",
    "cellId": "N3077",
    "address": null,
    "latitude": 19.63934,
    "longitude": -70.84228,
    "userId": null,
    "getRoutes": [],
    "getAlarm": null
  },
  {
    "id": "b89623fa-4be4-4469-8396-1775b1d00860",
    "locationName": "BIC",
    "cellId": "M1008",
    "address": null,
    "latitude": 18.48009,
    "longitude": -69.95103,
    "userId": null,
    "getRoutes": [],
    "getAlarm": null
  },
  {
    "id": "04010baa-9fe1-4804-9f84-1783f97bc996",
    "locationName": "Los Quemados(Bonao)",
    "cellId": "N3284",
    "address": null,
    "latitude": 18.8896,
    "longitude": -70.4529,
    "userId": null,
    "getRoutes": [],
    "getAlarm": null
  },
  {
    "id": "ad05df73-d20f-4500-9a0a-17970b2972fa",
    "locationName": "Los Corales Punta Cana",
    "cellId": "E6179",
    "address": null,
    "latitude": 18.55412865,
    "longitude": -68.34859467,
    "userId": null,
    "getRoutes": [],
    "getAlarm": null
  },
  {
    "id": "2b34cd87-98e2-4d03-84e7-17afa41b71da",
    "locationName": "Coral Gables II",
    "cellId": "M1153",
    "address": null,
    "latitude": 18.47467,
    "longitude": -69.93283,
    "userId": null,
    "getRoutes": [],
    "getAlarm": null
  },
  {
    "id": "bfbfaf9f-6000-4e84-a369-17c915e8858d",
    "locationName": "El Juncal",
    "cellId": "N3044",
    "address": null,
    "latitude": 19.44989,
    "longitude": -69.8774,
    "userId": null,
    "getRoutes": [],
    "getAlarm": null
  },
  {
    "id": "8f752c0a-b2cd-441b-abea-17fe0a1aa1c9",
    "locationName": "UTESA, San Carlos",
    "cellId": "M1363",
    "address": null,
    "latitude": 18.474325,
    "longitude": -69.894669,
    "userId": null,
    "getRoutes": [],
    "getAlarm": null
  },
  {
    "id": "79695216-81d9-43b3-865b-1803798678b4",
    "locationName": "Lotificacion Los Rios – Sector Anamuya",
    "cellId": "E6252",
    "address": null,
    "latitude": 18.635833,
    "longitude": -68.69692,
    "userId": null,
    "getRoutes": [],
    "getAlarm": null
  },
  {
    "id": "7592f667-4cad-439f-8081-181906113292",
    "locationName": "Sub Duarte",
    "cellId": "M1020",
    "address": null,
    "latitude": 18.48281,
    "longitude": -69.93574,
    "userId": null,
    "getRoutes": [],
    "getAlarm": null
  },
  {
    "id": "c0cad2a4-9654-4373-8494-1928a31f2c96",
    "locationName": "Taveras BAR",
    "cellId": "N3054",
    "address": null,
    "latitude": 19.28415,
    "longitude": -70.67986,
    "userId": null,
    "getRoutes": [],
    "getAlarm": null
  },
  {
    "id": "302f07c6-af1e-4651-ac98-1938fbe852c8",
    "locationName": "Los Ríos Centro - Bahoruco Sharing Altice",
    "cellId": "S5276",
    "address": null,
    "latitude": 18.520797,
    "longitude": -71.590679,
    "userId": null,
    "getRoutes": [],
    "getAlarm": null
  },
  {
    "id": "2c6c993b-a740-4919-95db-194c92ae311e",
    "locationName": "Cefijufa",
    "cellId": "M1237",
    "address": null,
    "latitude": 18.494208,
    "longitude": -69.730039,
    "userId": null,
    "getRoutes": [],
    "getAlarm": null
  },
  {
    "id": "47560c7e-27d1-4edc-b827-19750bf974fb",
    "locationName": "Hipodromo",
    "cellId": "M1032",
    "address": null,
    "latitude": 18.47128,
    "longitude": -69.77785,
    "userId": null,
    "getRoutes": [],
    "getAlarm": null
  },
  {
    "id": "5417aa79-78a0-4158-bd0a-198ad6ccd1f2",
    "locationName": "Mata Palacio (Hato Mayor)",
    "cellId": "E6130",
    "address": null,
    "latitude": 18.6702,
    "longitude": -69.3356,
    "userId": null,
    "getRoutes": [],
    "getAlarm": null
  },
  {
    "id": "80ca3452-279d-41e2-9dfd-19b352ab3643",
    "locationName": "Loma de Guaco",
    "cellId": "N3096",
    "address": null,
    "latitude": 19.26039,
    "longitude": -70.57457,
    "userId": null,
    "getRoutes": [],
    "getAlarm": null
  },
  {
    "id": "74514102-b560-4d51-8325-19e8fced1ddc",
    "locationName": "Villa Trina",
    "cellId": "N4004",
    "address": null,
    "latitude": 19.46767,
    "longitude": -70.45761,
    "userId": null,
    "getRoutes": [],
    "getAlarm": null
  },
  {
    "id": "4b9978c4-4fc1-4b45-af52-19efde24688f",
    "locationName": "Barbacoa(Las Terrenas-El Limon)",
    "cellId": "N3184",
    "address": null,
    "latitude": 19.31068,
    "longitude": -69.44711,
    "userId": null,
    "getRoutes": [],
    "getAlarm": null
  },
  {
    "id": "518213de-8ec7-434a-95c1-1a47c5f74130",
    "locationName": "Parque Las Palmas",
    "cellId": "C0106",
    "address": null,
    "latitude": 19.22251,
    "longitude": -70.52477,
    "userId": null,
    "getRoutes": [],
    "getAlarm": null
  },
  {
    "id": "37727d40-7e92-4d92-a776-1a48775f4002",
    "locationName": "Baitoal",
    "cellId": "N3379",
    "address": null,
    "latitude": 19.79818,
    "longitude": -71.54618,
    "userId": null,
    "getRoutes": [],
    "getAlarm": null
  },
  {
    "id": "d3df1577-47b2-409e-9f6f-1a4d3a17e8d8",
    "locationName": "Hotel Riu II",
    "cellId": "E6204",
    "address": null,
    "latitude": 18.71288,
    "longitude": -68.4794,
    "userId": null,
    "getRoutes": [],
    "getAlarm": null
  },
  {
    "id": "3e161218-89a2-49a8-a8d5-1a6cc6ccc2cd",
    "locationName": "La Salvia",
    "cellId": "N3342",
    "address": null,
    "latitude": 18.93931,
    "longitude": -70.422,
    "userId": null,
    "getRoutes": [],
    "getAlarm": null
  },
  {
    "id": "ccf42be7-bd6c-4dd8-a2b0-1a6e35f151e2",
    "locationName": "Hostos",
    "cellId": "N4008",
    "address": null,
    "latitude": 19.17937,
    "longitude": -70.02073,
    "userId": null,
    "getRoutes": [],
    "getAlarm": null
  },
  {
    "id": "f53cc187-3b59-4424-ae6a-1ae54c7c84a2",
    "locationName": "SOLUCION IB - AILA",
    "cellId": "M1361",
    "address": null,
    "latitude": 18.42768,
    "longitude": -69.67715,
    "userId": null,
    "getRoutes": [],
    "getAlarm": null
  },
  {
    "id": "ab5d9b66-4249-4d7d-8760-1ae7d9360446",
    "locationName": "Agustín Lara",
    "cellId": "M1124",
    "address": null,
    "latitude": 18.47647,
    "longitude": -69.93351,
    "userId": null,
    "getRoutes": [],
    "getAlarm": null
  },
  {
    "id": "51c91334-688d-4b9a-80fb-1b20b875c609",
    "locationName": "Los Tres Ojos",
    "cellId": "M1122",
    "address": null,
    "latitude": 18.47963,
    "longitude": -69.83532,
    "userId": null,
    "getRoutes": [],
    "getAlarm": null
  },
  {
    "id": "095b1dce-b4f1-4324-b127-1b4fb04d86e3",
    "locationName": "Pedro Corto (KM17)",
    "cellId": "S5032",
    "address": null,
    "latitude": 18.8414,
    "longitude": -71.3827,
    "userId": null,
    "getRoutes": [],
    "getAlarm": null
  },
  {
    "id": "e6e0cc7a-1120-4820-8fae-1b52695c125e",
    "locationName": "Ens. Mesopotamia - San Juan",
    "cellId": "S5268",
    "address": null,
    "latitude": 18.8107,
    "longitude": -71.2541,
    "userId": null,
    "getRoutes": [],
    "getAlarm": null
  },
  {
    "id": "dbc51c4a-a1e3-4608-91ed-1ba7950057fe",
    "locationName": "El cercado",
    "cellId": "S5070",
    "address": null,
    "latitude": 18.729312,
    "longitude": -71.520021,
    "userId": null,
    "getRoutes": [],
    "getAlarm": null
  },
  {
    "id": "e36ad441-e872-43f2-aeb2-1bc5a251f8ba",
    "locationName": "Ojo de Agua",
    "cellId": "N3314",
    "address": null,
    "latitude": 19.38958,
    "longitude": -70.3821,
    "userId": null,
    "getRoutes": [],
    "getAlarm": null
  },
  {
    "id": "0e0ca31d-3b9a-4058-b984-1c074af5d097",
    "locationName": "Boca de Mao",
    "cellId": "N3534",
    "address": null,
    "latitude": 19.591451,
    "longitude": -71.059403,
    "userId": null,
    "getRoutes": [],
    "getAlarm": null
  },
  {
    "id": "3be4c8a8-8790-4437-a813-1c3195c1c1ce",
    "locationName": "El avispero",
    "cellId": "N3413",
    "address": null,
    "latitude": 19.79432,
    "longitude": -70.69572,
    "userId": null,
    "getRoutes": [],
    "getAlarm": null
  },
  {
    "id": "14d44ce9-570a-470a-bd14-1c8a7bd65ad7",
    "locationName": "Body Health",
    "cellId": "M1010",
    "address": null,
    "latitude": 18.47131,
    "longitude": -69.91986,
    "userId": null,
    "getRoutes": [],
    "getAlarm": null
  },
  {
    "id": "d0cb4088-0cab-4d12-b622-1c93aed6ed78",
    "locationName": "Los Tramojos",
    "cellId": "S5190",
    "address": null,
    "latitude": 18.42805,
    "longitude": -70.73992,
    "userId": null,
    "getRoutes": [],
    "getAlarm": null
  },
  {
    "id": "80033ce9-3ed8-4f1e-8e19-1cbae0d89cd6",
    "locationName": "Loma del Yaque",
    "cellId": "S5249",
    "address": null,
    "latitude": 18.76074,
    "longitude": -71.07596,
    "userId": null,
    "getRoutes": [],
    "getAlarm": null
  },
  {
    "id": "56f4863a-09d9-47fc-ab8d-1ce2521ae097",
    "locationName": "La Grúa",
    "cellId": "M1211",
    "address": null,
    "latitude": 18.50905,
    "longitude": -69.79775,
    "userId": null,
    "getRoutes": [],
    "getAlarm": null
  },
  {
    "id": "e7211d22-a443-4812-a518-1cfc8200de42",
    "locationName": "Chicharron",
    "cellId": "N3025",
    "address": null,
    "latitude": 19.2422,
    "longitude": -69.6748,
    "userId": null,
    "getRoutes": [],
    "getAlarm": null
  },
  {
    "id": "2335eba9-8821-49d4-bf3a-1d498d47903f",
    "locationName": "Luisa Blanca",
    "cellId": "E6149",
    "address": null,
    "latitude": 18.73591,
    "longitude": -69.89499,
    "userId": null,
    "getRoutes": [],
    "getAlarm": null
  },
  {
    "id": "1ff45ad3-fa7a-4d26-95c8-1d9322990fb6",
    "locationName": "Inapa",
    "cellId": "N3063",
    "address": null,
    "latitude": 18.67028,
    "longitude": -70.16363,
    "userId": null,
    "getRoutes": [],
    "getAlarm": null
  },
  {
    "id": "5a651ad2-72c6-41cc-8e51-1deaff26cb8b",
    "locationName": "JV Las Canas – El Mamey",
    "cellId": "N3526",
    "address": null,
    "latitude": 19.322245,
    "longitude": -70.633107,
    "userId": null,
    "getRoutes": [],
    "getAlarm": null
  },
  {
    "id": "1e145be4-62b3-41be-9fcd-1e975addd01e",
    "locationName": "Carr El estrecho-Luperon",
    "cellId": "N3520",
    "address": null,
    "latitude": 19.861392,
    "longitude": -70.951712,
    "userId": null,
    "getRoutes": [],
    "getAlarm": null
  },
  {
    "id": "b1a497f9-788c-455f-b740-1ee4bc7661f2",
    "locationName": "Universidad Catolica Santo Domingo",
    "cellId": "M1338",
    "address": null,
    "latitude": 18.46304131,
    "longitude": -69.9239502,
    "userId": null,
    "getRoutes": [],
    "getAlarm": null
  },
  {
    "id": "863a33c0-94c5-44cc-99e2-1f0016c6aa29",
    "locationName": "KM 22 Aut Duarte",
    "cellId": "M1038",
    "address": null,
    "latitude": 18.54702,
    "longitude": -70.04251,
    "userId": null,
    "getRoutes": [],
    "getAlarm": null
  },
  {
    "id": "a300e06e-5c44-4489-8d83-1f2c2b375d66",
    "locationName": "Cerros de Buena Vista",
    "cellId": "N3023",
    "address": null,
    "latitude": 19.43572,
    "longitude": -70.71,
    "userId": null,
    "getRoutes": [],
    "getAlarm": null
  },
  {
    "id": "a0ceb6e6-c932-468a-b635-1f34772cd26d",
    "locationName": "Shell LAS AMERICAS",
    "cellId": "M1073",
    "address": null,
    "latitude": 18.48373,
    "longitude": -69.86009,
    "userId": null,
    "getRoutes": [],
    "getAlarm": null
  },
  {
    "id": "26c464e8-f2de-49fc-9a2e-1f5d1c157421",
    "locationName": "LOS CONUCOS - MonteCristi",
    "cellId": "N3246",
    "address": null,
    "latitude": 19.83837,
    "longitude": -71.38132,
    "userId": null,
    "getRoutes": [],
    "getAlarm": null
  },
  {
    "id": "9d295b3c-a268-4bda-add6-1f94dba7fdd9",
    "locationName": "Don Bosco",
    "cellId": "M1157",
    "address": null,
    "latitude": 18.47387,
    "longitude": -69.90017,
    "userId": null,
    "getRoutes": [],
    "getAlarm": null
  },
  {
    "id": "9fe51b90-7e35-424e-8e8e-1fc0f729a47c",
    "locationName": "Manganagua",
    "cellId": "M1140",
    "address": null,
    "latitude": 18.45424,
    "longitude": -69.9677,
    "userId": null,
    "getRoutes": [],
    "getAlarm": null
  },
  {
    "id": "97330211-76e5-43e9-84ef-1fdf35364cc1",
    "locationName": "Bani",
    "cellId": "S5004",
    "address": null,
    "latitude": 18.28011,
    "longitude": -70.33297,
    "userId": null,
    "getRoutes": [],
    "getAlarm": null
  },
  {
    "id": "a391f254-c988-4abd-afa2-1feab1bd5d53",
    "locationName": "Paradero",
    "cellId": "N3399",
    "address": null,
    "latitude": 19.6677,
    "longitude": -70.9283,
    "userId": null,
    "getRoutes": [],
    "getAlarm": null
  },
  {
    "id": "c34827bb-21c5-4e3e-be47-20157ccedba5",
    "locationName": "Santiago de la Cruz, Dajabón",
    "cellId": "N3201",
    "address": null,
    "latitude": 19.4809,
    "longitude": -71.6257,
    "userId": null,
    "getRoutes": [],
    "getAlarm": null
  },
  {
    "id": "2e5794c6-5b42-42bb-93ab-206ea05818f0",
    "locationName": "Moscoso Puello",
    "cellId": "M1089",
    "address": null,
    "latitude": 18.5017,
    "longitude": -69.90255,
    "userId": null,
    "getRoutes": [],
    "getAlarm": null
  },
  {
    "id": "1c1a348d-eeb6-45a5-a9bc-20a1ef15033a",
    "locationName": "Mirador Sur",
    "cellId": "M1159",
    "address": null,
    "latitude": 18.44508,
    "longitude": -69.95984,
    "userId": null,
    "getRoutes": [],
    "getAlarm": null
  },
  {
    "id": "6e827f61-6b8d-4688-9905-20abe00fb43b",
    "locationName": "Imbert",
    "cellId": "N3062",
    "address": null,
    "latitude": 19.74748,
    "longitude": -70.82549,
    "userId": null,
    "getRoutes": [],
    "getAlarm": null
  },
  {
    "id": "f4a7d51b-c576-4829-8818-20d7970e4969",
    "locationName": "KM 23 Azua-Barahona",
    "cellId": "S5033",
    "address": null,
    "latitude": 18.4597,
    "longitude": -70.9362,
    "userId": null,
    "getRoutes": [],
    "getAlarm": null
  },
  {
    "id": "dbb7d1bc-74df-40b5-ac5e-2199e45eb609",
    "locationName": "Arenoso CO",
    "cellId": "N3007",
    "address": null,
    "latitude": 19.18677,
    "longitude": -69.85913,
    "userId": null,
    "getRoutes": [],
    "getAlarm": null
  },
  {
    "id": "0b505f52-3614-4945-819a-21c8d5db7f94",
    "locationName": "Pajonal",
    "cellId": "S5051",
    "address": null,
    "latitude": 18.8721,
    "longitude": -71.4583,
    "userId": null,
    "getRoutes": [],
    "getAlarm": null
  },
  {
    "id": "608bc42a-613e-4f55-b69a-22e072c49e6d",
    "locationName": "Los Arkeanos Villa Mella",
    "cellId": "M1342",
    "address": null,
    "latitude": 18.5523682,
    "longitude": -69.90455627,
    "userId": null,
    "getRoutes": [],
    "getAlarm": null
  },
  {
    "id": "a65f94a6-fb18-421f-afa6-22f6f2034047",
    "locationName": "La Milagrosa, Moca",
    "cellId": "N3209",
    "address": null,
    "latitude": 19.38783,
    "longitude": -70.52562,
    "userId": null,
    "getRoutes": [],
    "getAlarm": null
  },
  {
    "id": "b204e84d-4baa-4924-a8e2-232cafe93d0a",
    "locationName": "La Siembra",
    "cellId": "S5175",
    "address": null,
    "latitude": 18.7751,
    "longitude": -70.8604,
    "userId": null,
    "getRoutes": [],
    "getAlarm": null
  },
  {
    "id": "b4f0ffa2-fc3e-4233-9b82-23354bf0bd52",
    "locationName": "San Rafael, María Trinidad Sánchez (Nagua)",
    "cellId": "N3361",
    "address": null,
    "latitude": 19.53141,
    "longitude": -69.96633,
    "userId": null,
    "getRoutes": [],
    "getAlarm": null
  },
  {
    "id": "f7d3d3d8-e9b5-4952-9c3f-23382c3bf0fc",
    "locationName": "EL CAIMITO-BAR",
    "cellId": "N3249",
    "address": null,
    "latitude": 19.17333,
    "longitude": -70.29591,
    "userId": null,
    "getRoutes": [],
    "getAlarm": null
  },
  {
    "id": "a52f3ea7-6074-49a8-be11-233951a10307",
    "locationName": "Ocoa III ODO",
    "cellId": "S5233",
    "address": null,
    "latitude": 18.54739952,
    "longitude": -70.50579834,
    "userId": null,
    "getRoutes": [],
    "getAlarm": null
  },
  {
    "id": "e26ae74f-bc85-4f58-b940-233abccbeb90",
    "locationName": "Buena Vista Norte (Romana)",
    "cellId": "E6215",
    "address": null,
    "latitude": 18.43113,
    "longitude": -68.96656,
    "userId": null,
    "getRoutes": [],
    "getAlarm": null
  },
  {
    "id": "0d0c54c4-4235-444c-8845-236a0b892d96",
    "locationName": "Altamira",
    "cellId": "N3004",
    "address": null,
    "latitude": 19.68942,
    "longitude": -70.84313,
    "userId": null,
    "getRoutes": [],
    "getAlarm": null
  },
  {
    "id": "414ea4dd-5bc5-497e-a54e-23cd948e3ebc",
    "locationName": "Los Minas PCS",
    "cellId": "M1265",
    "address": null,
    "latitude": 18.50698,
    "longitude": -69.86602,
    "userId": null,
    "getRoutes": [],
    "getAlarm": null
  },
  {
    "id": "7dc5badb-60ee-4bf7-a844-2410edd7ba81",
    "locationName": "PLAZA CENTRAL  27  de FEBRERO",
    "cellId": "M1231",
    "address": null,
    "latitude": 18.46388,
    "longitude": -69.93647,
    "userId": null,
    "getRoutes": [],
    "getAlarm": null
  },
  {
    "id": "506c93d1-baad-4f2f-a33d-24b0766297dd",
    "locationName": "Rancho Español",
    "cellId": "N3462",
    "address": null,
    "latitude": 19.24809,
    "longitude": -69.45612,
    "userId": null,
    "getRoutes": [],
    "getAlarm": null
  },
  {
    "id": "61c0a217-db95-4c16-a18f-24e4e57e2a55",
    "locationName": "Nueva Boca Cachon - Jimani",
    "cellId": "S5228",
    "address": null,
    "latitude": 18.53602028,
    "longitude": -71.77716827,
    "userId": null,
    "getRoutes": [],
    "getAlarm": null
  },
  {
    "id": "1d639094-2a99-46bc-8c9f-24f3d6d112e8",
    "locationName": "UNPHU",
    "cellId": "M1280",
    "address": null,
    "latitude": 18.48524,
    "longitude": -69.94863,
    "userId": null,
    "getRoutes": [],
    "getAlarm": null
  },
  {
    "id": "db57150c-6276-4331-aed5-25053cfc6c8c",
    "locationName": "Guanuma",
    "cellId": "E6138",
    "address": null,
    "latitude": 18.69396,
    "longitude": -69.931747,
    "userId": null,
    "getRoutes": [],
    "getAlarm": null
  },
  {
    "id": "7f628e86-26d1-4a21-a1a2-251c8fa60590",
    "locationName": "Maizal",
    "cellId": "N3394",
    "address": null,
    "latitude": 19.63643,
    "longitude": -71.03109,
    "userId": null,
    "getRoutes": [],
    "getAlarm": null
  },
  {
    "id": "cb317cf9-d7a9-4a2d-b778-257311f652ff",
    "locationName": "Torre del Oriente II - Ens Ozama",
    "cellId": "M1358",
    "address": null,
    "latitude": 18.49139,
    "longitude": -69.87321,
    "userId": null,
    "getRoutes": [],
    "getAlarm": null
  },
  {
    "id": "586f31cf-edda-444c-8d42-25b02609367b",
    "locationName": "Villa Tapia",
    "cellId": "N3172",
    "address": null,
    "latitude": 19.29899,
    "longitude": -70.41986,
    "userId": null,
    "getRoutes": [],
    "getAlarm": null
  },
  {
    "id": "7b81b0a6-d47e-4799-9907-25d1a3b5235f",
    "locationName": "Estadio Quisqueya I",
    "cellId": "M1221",
    "address": null,
    "latitude": 18.48901,
    "longitude": -69.92532,
    "userId": null,
    "getRoutes": [],
    "getAlarm": null
  },
  {
    "id": "5695f5b8-a36a-485c-b80f-260a7ef86f47",
    "locationName": "Cruce Las Matas",
    "cellId": "N3036",
    "address": null,
    "latitude": 19.096,
    "longitude": -70.158,
    "userId": null,
    "getRoutes": [],
    "getAlarm": null
  },
  {
    "id": "6c190c7f-5968-4dfc-a6d8-2649ff869c58",
    "locationName": "Santa Barbara, Zona Colonial",
    "cellId": "M1376",
    "address": null,
    "latitude": 18.4793,
    "longitude": -69.8843,
    "userId": null,
    "getRoutes": [],
    "getAlarm": null
  },
  {
    "id": "621bb480-4994-4914-9f21-26a32957e00e",
    "locationName": "Torre Cristal",
    "cellId": "M1075",
    "address": null,
    "latitude": 18.47897,
    "longitude": -69.92755,
    "userId": null,
    "getRoutes": [],
    "getAlarm": null
  },
  {
    "id": "3737672b-4197-4d1f-bb6f-26ad39116829",
    "locationName": "Hiper Ole",
    "cellId": "M1031",
    "address": null,
    "latitude": 18.48494,
    "longitude": -69.84001,
    "userId": null,
    "getRoutes": [],
    "getAlarm": null
  },
  {
    "id": "78eff31a-0794-4855-afa2-26bd6c4b996e",
    "locationName": "Sea Horse Ranch",
    "cellId": "N3251",
    "address": null,
    "latitude": 19.7747,
    "longitude": -70.49063,
    "userId": null,
    "getRoutes": [],
    "getAlarm": null
  },
  {
    "id": "9ba3d362-7406-4695-a831-26d452120043",
    "locationName": "Matilla",
    "cellId": "E6043",
    "address": null,
    "latitude": 18.542647,
    "longitude": -68.723062,
    "userId": null,
    "getRoutes": [],
    "getAlarm": null
  },
  {
    "id": "3a5f4956-1559-4cea-911d-26e01170dd5c",
    "locationName": "Sabana De La Mar",
    "cellId": "E6058",
    "address": null,
    "latitude": 19.05975,
    "longitude": -69.39059,
    "userId": null,
    "getRoutes": [],
    "getAlarm": null
  },
  {
    "id": "691385a1-ebba-4c11-a1ee-26f8338b1eef",
    "locationName": "La Ceiba - Bonao",
    "cellId": "N3304",
    "address": null,
    "latitude": 18.99516,
    "longitude": -70.43386,
    "userId": null,
    "getRoutes": [],
    "getAlarm": null
  },
  {
    "id": "ab4fa22c-2c2d-40b5-b725-26feacf25e96",
    "locationName": "Barrio Nueva Esperanza",
    "cellId": "N3532",
    "address": null,
    "latitude": 19.599971,
    "longitude": -70.453084,
    "userId": null,
    "getRoutes": [],
    "getAlarm": null
  },
  {
    "id": "a42418ee-23a7-4c5a-8f9a-2700e5a658e8",
    "locationName": "Fondo Negro - Vicente Noble",
    "cellId": "S5221",
    "address": null,
    "latitude": 18.43381691,
    "longitude": -71.1088028,
    "userId": null,
    "getRoutes": [],
    "getAlarm": null
  },
  {
    "id": "75bbbcdc-0e40-4310-b387-281bc2334e30",
    "locationName": "Cajuilito",
    "cellId": "S5008",
    "address": null,
    "latitude": 18.429575,
    "longitude": -70.052444,
    "userId": null,
    "getRoutes": [],
    "getAlarm": null
  },
  {
    "id": "4ba48015-3d15-438e-a215-2871dcca2770",
    "locationName": "Km 21, Carr/ Hmayor-Sab.De La Mar",
    "cellId": "E6194",
    "address": null,
    "latitude": 18.88783,
    "longitude": -69.35305,
    "userId": null,
    "getRoutes": [],
    "getAlarm": null
  },
  {
    "id": "d1ee97e4-178b-4db1-ba48-2882ed264c82",
    "locationName": "Loma Alta, San Rafael",
    "cellId": "N3352",
    "address": null,
    "latitude": 19.61494,
    "longitude": -69.92047,
    "userId": null,
    "getRoutes": [],
    "getAlarm": null
  },
  {
    "id": "e7aed783-9d7a-4e12-9ad1-2898cc35036f",
    "locationName": "Amaceyes",
    "cellId": "N3422",
    "address": null,
    "latitude": 19.5008,
    "longitude": -70.5061,
    "userId": null,
    "getRoutes": [],
    "getAlarm": null
  },
  {
    "id": "4e1022d4-1835-4df7-a6dd-28ce21acb376",
    "locationName": "Rancho La Guardia",
    "cellId": "S5157",
    "address": null,
    "latitude": 18.71522,
    "longitude": -71.66085,
    "userId": null,
    "getRoutes": [],
    "getAlarm": null
  },
  {
    "id": "17b9be45-bbab-43d7-bd54-28e445c0f743",
    "locationName": "Las Salinas- Barahona",
    "cellId": "S5074",
    "address": null,
    "latitude": 18.279361,
    "longitude": -71.317556,
    "userId": null,
    "getRoutes": [],
    "getAlarm": null
  },
  {
    "id": "a629f563-a9c7-4d63-a0ad-290843443425",
    "locationName": "Esquina Tejas",
    "cellId": "M1218",
    "address": null,
    "latitude": 18.45945,
    "longitude": -69.94421,
    "userId": null,
    "getRoutes": [],
    "getAlarm": null
  },
  {
    "id": "33e78ce3-bbc5-4712-83f4-2940abc48229",
    "locationName": "Luperon",
    "cellId": "N3109",
    "address": null,
    "latitude": 19.88939,
    "longitude": -70.96414,
    "userId": null,
    "getRoutes": [],
    "getAlarm": null
  },
  {
    "id": "01107903-46a7-4cdb-a355-294c91a2307e",
    "locationName": "Arroyo del  Toro",
    "cellId": "N3378",
    "address": null,
    "latitude": 19.23477,
    "longitude": -69.42198,
    "userId": null,
    "getRoutes": [],
    "getAlarm": null
  },
  {
    "id": "1bbfc9f2-203f-4d33-b38a-29769d4033a6",
    "locationName": "Ave Venezuela",
    "cellId": "M1006",
    "address": null,
    "latitude": 18.48593,
    "longitude": -69.8731,
    "userId": null,
    "getRoutes": [],
    "getAlarm": null
  },
  {
    "id": "0d89e754-c706-478a-8626-29fa9248bb3c",
    "locationName": "Camino Chiquito, Arroyo Hondo,DN",
    "cellId": "M1167",
    "address": null,
    "latitude": 18.4934,
    "longitude": -69.9376,
    "userId": null,
    "getRoutes": [],
    "getAlarm": null
  },
  {
    "id": "51d677ca-ec51-4eb7-80b2-29fc05c6c357",
    "locationName": "Villa Isabela",
    "cellId": "N3168",
    "address": null,
    "latitude": 19.821,
    "longitude": -71.05711,
    "userId": null,
    "getRoutes": [],
    "getAlarm": null
  },
  {
    "id": "479b1d77-72d4-478b-bed8-2a1a786aa0d1",
    "locationName": "Cosón - Catey III",
    "cellId": "N3459",
    "address": null,
    "latitude": 19.29024,
    "longitude": -69.637,
    "userId": null,
    "getRoutes": [],
    "getAlarm": null
  },
  {
    "id": "f23a0f64-a616-49a6-8d89-2a1edb246d0e",
    "locationName": "Partido",
    "cellId": "N3125",
    "address": null,
    "latitude": 19.479,
    "longitude": -71.54659,
    "userId": null,
    "getRoutes": [],
    "getAlarm": null
  },
  {
    "id": "7d6c6693-2ee4-4ddd-bb9f-2a44c03b663d",
    "locationName": "Evangelina Rosario, Higuey",
    "cellId": "E6188",
    "address": null,
    "latitude": 18.61360359,
    "longitude": -68.72265625,
    "userId": null,
    "getRoutes": [],
    "getAlarm": null
  },
  {
    "id": "80df2dbc-6602-4b32-9637-2aa19f6471b1",
    "locationName": "Jaya",
    "cellId": "N3217",
    "address": null,
    "latitude": 19.35222,
    "longitude": -70.23734,
    "userId": null,
    "getRoutes": [],
    "getAlarm": null
  },
  {
    "id": "f4d5053e-3b9a-43e1-b981-2acd8cd9ff93",
    "locationName": "El Guanito",
    "cellId": "E6025",
    "address": null,
    "latitude": 18.62696,
    "longitude": -68.81126,
    "userId": null,
    "getRoutes": [],
    "getAlarm": null
  },
  {
    "id": "43cd2f29-5e4f-42c5-8beb-2aea29e39d88",
    "locationName": "Constanza III",
    "cellId": "N4013",
    "address": null,
    "latitude": 19.00798,
    "longitude": -70.57987,
    "userId": null,
    "getRoutes": [],
    "getAlarm": null
  },
  {
    "id": "b3861c36-5119-4aae-b9a6-2b25e38fbb17",
    "locationName": "Las Carreras",
    "cellId": "N3421",
    "address": null,
    "latitude": 19.45388,
    "longitude": -70.69751,
    "userId": null,
    "getRoutes": [],
    "getAlarm": null
  },
  {
    "id": "a1a837c4-02da-441f-82e5-2b5913cac158",
    "locationName": "Hato Mayor",
    "cellId": "E6029",
    "address": null,
    "latitude": 18.76011,
    "longitude": -69.25447,
    "userId": null,
    "getRoutes": [],
    "getAlarm": null
  },
  {
    "id": "eb121d91-d1c3-4766-ac78-2b6e0c3b8e8f",
    "locationName": "La Trinchera",
    "cellId": "S5038",
    "address": null,
    "latitude": 18.6089,
    "longitude": -71,
    "userId": null,
    "getRoutes": [],
    "getAlarm": null
  },
  {
    "id": "81f9c8cd-fa03-4807-9339-2bd2f80fe1fb",
    "locationName": "Solucion IB - Multiplaza La Romana",
    "cellId": "E6199",
    "address": null,
    "latitude": 18.43313,
    "longitude": -68.99298,
    "userId": null,
    "getRoutes": [],
    "getAlarm": null
  },
  {
    "id": "9a700208-4c67-49b3-b6e7-2c441a64f902",
    "locationName": "Villa Liberacion Tamayo",
    "cellId": "S5158",
    "address": null,
    "latitude": 18.4116993,
    "longitude": -71.1922226,
    "userId": null,
    "getRoutes": [],
    "getAlarm": null
  },
  {
    "id": "20256df1-15db-477c-a16c-2c7f3d6dd34f",
    "locationName": "La Descubierta (Jimaní)",
    "cellId": "S5089",
    "address": null,
    "latitude": 18.571111,
    "longitude": -71.730778,
    "userId": null,
    "getRoutes": [],
    "getAlarm": null
  },
  {
    "id": "72a9fa13-f178-42fc-a41e-2cecf71fd458",
    "locationName": "Villa Tapia II",
    "cellId": "N3456",
    "address": null,
    "latitude": 19.31231,
    "longitude": -70.38664,
    "userId": null,
    "getRoutes": [],
    "getAlarm": null
  },
  {
    "id": "550cf783-d71b-4d8a-a62e-2d19c5747c35",
    "locationName": "Rio San Juan",
    "cellId": "N3141",
    "address": null,
    "latitude": 19.64574,
    "longitude": -70.07724,
    "userId": null,
    "getRoutes": [],
    "getAlarm": null
  },
  {
    "id": "d40accad-c410-4717-abfd-2d2de2239e05",
    "locationName": "Guananito",
    "cellId": "N3056",
    "address": null,
    "latitude": 18.710647,
    "longitude": -70.22684,
    "userId": null,
    "getRoutes": [],
    "getAlarm": null
  },
  {
    "id": "7e2e5e4b-81d6-47aa-801f-2d502d0aa4e6",
    "locationName": "Intec",
    "cellId": "M1176",
    "address": null,
    "latitude": 18.48783,
    "longitude": -69.96267,
    "userId": null,
    "getRoutes": [],
    "getAlarm": null
  },
  {
    "id": "948c4d7a-8411-45ec-ba8d-2d5c6772d8a3",
    "locationName": "Los Yayales",
    "cellId": "N3107",
    "address": null,
    "latitude": 19.30522,
    "longitude": -69.78967,
    "userId": null,
    "getRoutes": [],
    "getAlarm": null
  },
  {
    "id": "bb5c6d90-992b-47f6-b25a-2d867dc17753",
    "locationName": "Estadio Quisqueya 5",
    "cellId": "M1187",
    "address": null,
    "latitude": 18.48801,
    "longitude": -69.9268,
    "userId": null,
    "getRoutes": [],
    "getAlarm": null
  },
  {
    "id": "511c3418-51f2-430d-b949-2d88a1660be9",
    "locationName": "Plaza Florida Suites",
    "cellId": "M1277",
    "address": null,
    "latitude": 18.46432,
    "longitude": -69.92512,
    "userId": null,
    "getRoutes": [],
    "getAlarm": null
  },
  {
    "id": "6d8115f5-7877-46d6-9b3e-2de6efb297fa",
    "locationName": "Santana-Higuey",
    "cellId": "E6150",
    "address": null,
    "latitude": 18.630455,
    "longitude": -68.769675,
    "userId": null,
    "getRoutes": [],
    "getAlarm": null
  },
  {
    "id": "1a95a098-5cbf-42c2-87cb-2dfa3e28cd2a",
    "locationName": "Ingenio Colon",
    "cellId": "E6036",
    "address": null,
    "latitude": 18.432861,
    "longitude": -69.356388,
    "userId": null,
    "getRoutes": [],
    "getAlarm": null
  },
  {
    "id": "7b7a1dd1-d2c7-4f6b-93c0-2e695d6e0fad",
    "locationName": "Cow C0115 (Ciudad Las Palmas)",
    "cellId": "C0115",
    "address": null,
    "latitude": 19.226801,
    "longitude": -70.514264,
    "userId": null,
    "getRoutes": [],
    "getAlarm": null
  },
  {
    "id": "7d849ea8-b9ea-4081-9b5b-2e76ffec372c",
    "locationName": "Blanco",
    "cellId": "N3010",
    "address": null,
    "latitude": 19.342,
    "longitude": -69.87276,
    "userId": null,
    "getRoutes": [],
    "getAlarm": null
  },
  {
    "id": "3e50fa8a-446f-4950-b633-2e87cb92ffea",
    "locationName": "AILU",
    "cellId": "N3003",
    "address": null,
    "latitude": 19.75225,
    "longitude": -70.56294,
    "userId": null,
    "getRoutes": [],
    "getAlarm": null
  },
  {
    "id": "fb63a03b-7212-4f9d-ac90-2ee2735288fd",
    "locationName": "Estadio Olimpico V",
    "cellId": "M1316",
    "address": null,
    "latitude": 18.480386,
    "longitude": -69.918094,
    "userId": null,
    "getRoutes": [],
    "getAlarm": null
  },
  {
    "id": "c466e3ea-5e42-4ffa-b7ac-2f67c48332bd",
    "locationName": "ZF LAS AMERICAS",
    "cellId": "M1084",
    "address": null,
    "latitude": 18.45947,
    "longitude": -69.70745,
    "userId": null,
    "getRoutes": [],
    "getAlarm": null
  },
  {
    "id": "369aa75e-432b-4811-a260-2fa4b40be0fa",
    "locationName": "Gazcue CO (Estaciones Metro SD Línea 1)",
    "cellId": "M1305",
    "address": null,
    "latitude": 18.46327019,
    "longitude": -69.90722656,
    "userId": null,
    "getRoutes": [],
    "getAlarm": null
  },
  {
    "id": "19545576-38cf-46a1-813b-2fc6040f7988",
    "locationName": "Manaclar Rptr",
    "cellId": "S5163",
    "address": null,
    "latitude": 18.39266586,
    "longitude": -70.35819244,
    "userId": null,
    "getRoutes": [],
    "getAlarm": null
  },
  {
    "id": "15b496bd-5f75-4d92-b79d-2ff56a5bf6e3",
    "locationName": "Bani IV",
    "cellId": "S5167",
    "address": null,
    "latitude": 18.2828,
    "longitude": -70.35399,
    "userId": null,
    "getRoutes": [],
    "getAlarm": null
  },
  {
    "id": "cf4b2689-2fb0-424d-b9c1-3043acc4aa09",
    "locationName": "Juan Dolio Pueblo",
    "cellId": "E6192",
    "address": null,
    "latitude": 18.43019485,
    "longitude": -69.42923737,
    "userId": null,
    "getRoutes": [],
    "getAlarm": null
  },
  {
    "id": "8c38e741-a6d8-499c-bf20-30cc40664cfe",
    "locationName": "Urb. Mi Hogar Santo Domingo",
    "cellId": "M1248",
    "address": null,
    "latitude": 18.5,
    "longitude": -69.8481,
    "userId": null,
    "getRoutes": [],
    "getAlarm": null
  },
  {
    "id": "92f94c0e-d855-4d62-957c-30de46a82b7a",
    "locationName": "El Conuco",
    "cellId": "N3470",
    "address": null,
    "latitude": 19.34381,
    "longitude": -70.37378,
    "userId": null,
    "getRoutes": [],
    "getAlarm": null
  },
  {
    "id": "845e6d86-e3ab-44d7-be24-30e948b9bd93",
    "locationName": "Casa De Campo Centro",
    "cellId": "E6073",
    "address": null,
    "latitude": 18.41541,
    "longitude": -68.91716,
    "userId": null,
    "getRoutes": [],
    "getAlarm": null
  },
  {
    "id": "86973604-d55f-43e3-a364-3102dac8d68d",
    "locationName": "Los Haitises 2",
    "cellId": "E6196",
    "address": null,
    "latitude": 19.055061,
    "longitude": -69.8330611,
    "userId": null,
    "getRoutes": [],
    "getAlarm": null
  },
  {
    "id": "1b5a431d-6e04-47bd-ad00-31a772a17008",
    "locationName": "San Cristobal Palenque 5",
    "cellId": "S5085",
    "address": null,
    "latitude": 18.287194,
    "longitude": -70.123361,
    "userId": null,
    "getRoutes": [],
    "getAlarm": null
  },
  {
    "id": "c74f0e23-30bf-43b9-b9b6-31ae1ad01603",
    "locationName": "Pueblo Nuevo",
    "cellId": "E6214",
    "address": null,
    "latitude": 18.66758,
    "longitude": -69.74188,
    "userId": null,
    "getRoutes": [],
    "getAlarm": null
  },
  {
    "id": "23ed1b36-b844-4b42-9192-31bb6d7c71c9",
    "locationName": "Ensanche Quisqueya - La Romana",
    "cellId": "E6232",
    "address": null,
    "latitude": 18.425664,
    "longitude": -68.983951,
    "userId": null,
    "getRoutes": [],
    "getAlarm": null
  },
  {
    "id": "d655d292-23c7-437f-9fb5-31e100afb260",
    "locationName": "Tierra Nueva",
    "cellId": "S5248",
    "address": null,
    "latitude": 18.58832,
    "longitude": -71.91119,
    "userId": null,
    "getRoutes": [],
    "getAlarm": null
  },
  {
    "id": "ac2305cf-b5e2-4147-b737-31ed370ed73c",
    "locationName": "Cabeza De Toro DM-Bahoruco",
    "cellId": "S5212",
    "address": null,
    "latitude": 18.59597,
    "longitude": -71.23378,
    "userId": null,
    "getRoutes": [],
    "getAlarm": null
  },
  {
    "id": "df5d1697-9141-4c21-8875-3209b5af009b",
    "locationName": "Guauci",
    "cellId": "N3057",
    "address": null,
    "latitude": 19.40792,
    "longitude": -70.51495,
    "userId": null,
    "getRoutes": [],
    "getAlarm": null
  },
  {
    "id": "4d0f840b-441b-4f9e-a0ea-3226422db248",
    "locationName": "La Romana X",
    "cellId": "E6117",
    "address": null,
    "latitude": 18.43952,
    "longitude": -68.96759,
    "userId": null,
    "getRoutes": [],
    "getAlarm": null
  },
  {
    "id": "d936a8ce-bf58-4bb2-aa2e-3277f751cadb",
    "locationName": "Casa Bonita",
    "cellId": "C0111",
    "address": null,
    "latitude": 18.399098,
    "longitude": -68.915299,
    "userId": null,
    "getRoutes": [],
    "getAlarm": null
  },
  {
    "id": "4f703aa8-a5bf-4bd1-b6d3-327902afa587",
    "locationName": "Americo Lugo",
    "cellId": "M1141",
    "address": null,
    "latitude": 18.48997,
    "longitude": -69.91151,
    "userId": null,
    "getRoutes": [],
    "getAlarm": null
  },
  {
    "id": "a6123e15-e60d-410a-97ed-327b9f1c1371",
    "locationName": "La Victoria II",
    "cellId": "M1247",
    "address": null,
    "latitude": 18.58852,
    "longitude": -69.84744,
    "userId": null,
    "getRoutes": [],
    "getAlarm": null
  },
  {
    "id": "82dd9d0a-063e-472f-946d-32a408a97c21",
    "locationName": "Verón Bávaro",
    "cellId": "E6105",
    "address": null,
    "latitude": 18.59739,
    "longitude": -68.43381,
    "userId": null,
    "getRoutes": [],
    "getAlarm": null
  },
  {
    "id": "79d6d872-1340-4107-8164-332e2af9280c",
    "locationName": "Nuevo Mirador del Este",
    "cellId": "M1369",
    "address": null,
    "latitude": 18.474422,
    "longitude": -69.862178,
    "userId": null,
    "getRoutes": [],
    "getAlarm": null
  },
  {
    "id": "a2d74f4c-77c2-4888-9c4e-3347fde3081b",
    "locationName": "Evaristo Morales",
    "cellId": "M1268",
    "address": null,
    "latitude": 18.464653,
    "longitude": -69.939519,
    "userId": null,
    "getRoutes": [],
    "getAlarm": null
  },
  {
    "id": "7856e9d2-5de9-4f0e-9d4f-334e681f4f00",
    "locationName": "Piedra Blanca Maimón",
    "cellId": "N3460",
    "address": null,
    "latitude": 18.88919,
    "longitude": -70.29819,
    "userId": null,
    "getRoutes": [],
    "getAlarm": null
  },
  {
    "id": "cf8711e1-603f-4ab2-88c9-3400bf730c9b",
    "locationName": "San Antonio - Alcarrizos / Alcarrizos III (Sharing Phoenix Tower)",
    "cellId": "M1383",
    "address": null,
    "latitude": 18.5312,
    "longitude": -70.0158,
    "userId": null,
    "getRoutes": [],
    "getAlarm": null
  },
  {
    "id": "d4e0848a-115f-4284-adec-34033a4aa306",
    "locationName": "Rio Arriba - Bani",
    "cellId": "S5235",
    "address": null,
    "latitude": 18.30286,
    "longitude": -70.3117,
    "userId": null,
    "getRoutes": [],
    "getAlarm": null
  },
  {
    "id": "94ec4878-0d2b-4b60-a937-341b4aaafb56",
    "locationName": "Rancho arriba (San José Ocoa)",
    "cellId": "S5077",
    "address": null,
    "latitude": 18.699944,
    "longitude": -70.47125,
    "userId": null,
    "getRoutes": [],
    "getAlarm": null
  },
  {
    "id": "4ea80eec-3fd0-44bf-9999-345ef4667227",
    "locationName": "Residencial Constanza - Los Alcarrizos",
    "cellId": "M1264",
    "address": null,
    "latitude": 18.537142,
    "longitude": -70.008873,
    "userId": null,
    "getRoutes": [],
    "getAlarm": null
  },
  {
    "id": "1c29e225-f534-4663-a7a0-347e49adcdc8",
    "locationName": "Mariano Cesteros Repetidor",
    "cellId": "N3436",
    "address": null,
    "latitude": 19.34575,
    "longitude": -71.66853,
    "userId": null,
    "getRoutes": [],
    "getAlarm": null
  },
  {
    "id": "6f16e526-0d41-4bd2-8e38-34848f573fbd",
    "locationName": "San Francisco VI",
    "cellId": "N3319",
    "address": null,
    "latitude": 19.29708,
    "longitude": -70.24594,
    "userId": null,
    "getRoutes": [],
    "getAlarm": null
  },
  {
    "id": "a3aa99f4-66d0-4442-a8d4-34bd922a6662",
    "locationName": "Hato Padre",
    "cellId": "S5121",
    "address": null,
    "latitude": 18.85647,
    "longitude": -71.26247,
    "userId": null,
    "getRoutes": [],
    "getAlarm": null
  },
  {
    "id": "e08624a2-0ba1-4cbd-8775-34e9f212e975",
    "locationName": "Jimani",
    "cellId": "S5030",
    "address": null,
    "latitude": 18.49371,
    "longitude": -71.85062,
    "userId": null,
    "getRoutes": [],
    "getAlarm": null
  },
  {
    "id": "88909cab-60ee-45fa-ac5e-3510c2a65a79",
    "locationName": "Ingenio Quisqueya",
    "cellId": "E6038",
    "address": null,
    "latitude": 18.5536,
    "longitude": -69.408,
    "userId": null,
    "getRoutes": [],
    "getAlarm": null
  },
  {
    "id": "ad5ee5a1-149d-4ad5-8a3a-354513b1bd89",
    "locationName": "Las Trabas, Rincon Largo",
    "cellId": "N3312",
    "address": null,
    "latitude": 19.4505291,
    "longitude": -70.67916107,
    "userId": null,
    "getRoutes": [],
    "getAlarm": null
  },
  {
    "id": "86e0a8b2-5973-429e-8423-3578d96b9efb",
    "locationName": "Las Auyamas San Juan",
    "cellId": "S5244",
    "address": null,
    "latitude": 18.8288,
    "longitude": -71.1493,
    "userId": null,
    "getRoutes": [],
    "getAlarm": null
  },
  {
    "id": "9256d6de-c056-4aa9-9777-358545952912",
    "locationName": "Villa Duarte",
    "cellId": "M1202",
    "address": null,
    "latitude": 18.47923,
    "longitude": -69.87574,
    "userId": null,
    "getRoutes": [],
    "getAlarm": null
  },
  {
    "id": "96726a0a-f786-4eee-90ec-35a2b312e975",
    "locationName": "Amiama Gómez",
    "cellId": "S5142",
    "address": null,
    "latitude": 18.59367,
    "longitude": -70.8947,
    "userId": null,
    "getRoutes": [],
    "getAlarm": null
  },
  {
    "id": "96d9802c-8b63-44b6-9057-35a5a0fffce9",
    "locationName": "Alfareria",
    "cellId": "M1304",
    "address": null,
    "latitude": 18.4945,
    "longitude": -69.98733,
    "userId": null,
    "getRoutes": [],
    "getAlarm": null
  },
  {
    "id": "0e0ef95c-04b2-4e8e-9808-35a8a4cb02e2",
    "locationName": "Lope de Vega",
    "cellId": "M1270",
    "address": null,
    "latitude": 18.47945,
    "longitude": -69.93037,
    "userId": null,
    "getRoutes": [],
    "getAlarm": null
  },
  {
    "id": "87136102-0142-454b-a4f5-35d464ff5c31",
    "locationName": "Barrio Palmarito - Barahona",
    "cellId": "S5200",
    "address": null,
    "latitude": 18.22297287,
    "longitude": -71.11816406,
    "userId": null,
    "getRoutes": [],
    "getAlarm": null
  },
  {
    "id": "5afca13e-9c3f-4acd-a5ed-35d81bc5e996",
    "locationName": "Cuesta Hermosa II",
    "cellId": "M1303",
    "address": null,
    "latitude": 18.50931,
    "longitude": -69.95222,
    "userId": null,
    "getRoutes": [],
    "getAlarm": null
  },
  {
    "id": "a2ced5ec-0b9b-4b84-8e74-35df4d422eb0",
    "locationName": "Jorgillo, SJM",
    "cellId": "S5177",
    "address": null,
    "latitude": 18.7049,
    "longitude": -71.41643,
    "userId": null,
    "getRoutes": [],
    "getAlarm": null
  },
  {
    "id": "051672e1-da55-4173-8548-35f15a1231fb",
    "locationName": "Las Amapolas - Bonao",
    "cellId": "N3377",
    "address": null,
    "latitude": 18.95115,
    "longitude": -70.40933,
    "userId": null,
    "getRoutes": [],
    "getAlarm": null
  },
  {
    "id": "8f6e86a5-2c5c-4a80-a193-35f5f39e72b2",
    "locationName": "Yapur Dumit II, Santiago",
    "cellId": "N3248",
    "address": null,
    "latitude": 19.41333,
    "longitude": -70.71124,
    "userId": null,
    "getRoutes": [],
    "getAlarm": null
  },
  {
    "id": "8ac5a47d-8fb5-4e66-8e9a-366e0ef04c68",
    "locationName": "JAYACO Bar LTE",
    "cellId": "N3276",
    "address": null,
    "latitude": 19.00938,
    "longitude": -70.42105,
    "userId": null,
    "getRoutes": [],
    "getAlarm": null
  },
  {
    "id": "51b0992f-a099-4fd7-8adb-36a035205c7a",
    "locationName": "San José de Mendoza-Antes Intec",
    "cellId": "M1100",
    "address": null,
    "latitude": 18.50438,
    "longitude": -69.81664,
    "userId": null,
    "getRoutes": [],
    "getAlarm": null
  },
  {
    "id": "578016b8-fae5-4096-bb6e-3716e7e53800",
    "locationName": "Res. Doña Rosa (Orange La Vega Co-ubicacion)",
    "cellId": "N3488",
    "address": null,
    "latitude": 19.2152,
    "longitude": -70.51685,
    "userId": null,
    "getRoutes": [],
    "getAlarm": null
  },
  {
    "id": "67b829cc-793d-45f7-a061-3763f04d9559",
    "locationName": "Nicole M",
    "cellId": "M1059",
    "address": null,
    "latitude": 18.47289,
    "longitude": -69.93912,
    "userId": null,
    "getRoutes": [],
    "getAlarm": null
  },
  {
    "id": "ab5fd052-2552-4e96-94f9-37a925c3bc01",
    "locationName": "Entrada La Romana",
    "cellId": "E6116",
    "address": null,
    "latitude": 18.43736,
    "longitude": -68.99662,
    "userId": null,
    "getRoutes": [],
    "getAlarm": null
  },
  {
    "id": "4bc405c9-4ae0-4ede-9ee7-37d60b44fe39",
    "locationName": "Sabana Grande De Boya",
    "cellId": "E6059",
    "address": null,
    "latitude": 18.94611,
    "longitude": -69.79191,
    "userId": null,
    "getRoutes": [],
    "getAlarm": null
  },
  {
    "id": "1370e226-017d-473b-b130-38078bc61324",
    "locationName": "Los Guiros",
    "cellId": "S5042",
    "address": null,
    "latitude": 18.4701,
    "longitude": -70.9928,
    "userId": null,
    "getRoutes": [],
    "getAlarm": null
  },
  {
    "id": "e03a25ed-a5b0-4a14-bd4b-38200cfb0b34",
    "locationName": "Guatapanal",
    "cellId": "N3261",
    "address": null,
    "latitude": 19.5047,
    "longitude": -70.9183,
    "userId": null,
    "getRoutes": [],
    "getAlarm": null
  },
  {
    "id": "481036ac-89cf-4b58-8547-3829241726ce",
    "locationName": "Barreras",
    "cellId": "S5145",
    "address": null,
    "latitude": 18.3258,
    "longitude": -70.8983,
    "userId": null,
    "getRoutes": [],
    "getAlarm": null
  },
  {
    "id": "72758cb7-73ed-4dd4-bf25-383a9d757b1c",
    "locationName": "Los Cocos de Jacagua",
    "cellId": "N3239",
    "address": null,
    "latitude": 19.52428,
    "longitude": -70.7057,
    "userId": null,
    "getRoutes": [],
    "getAlarm": null
  },
  {
    "id": "6071f5d2-64a7-4121-b449-383e8193a9bf",
    "locationName": "Barrick Gold Cotui",
    "cellId": "N3406",
    "address": null,
    "latitude": 18.92092,
    "longitude": -70.16206,
    "userId": null,
    "getRoutes": [],
    "getAlarm": null
  },
  {
    "id": "dd16f26b-2368-46be-b8ef-38a11da43d33",
    "locationName": "La Isabela, Puerto Plata",
    "cellId": "N3332",
    "address": null,
    "latitude": 19.8851,
    "longitude": -71.06697,
    "userId": null,
    "getRoutes": [],
    "getAlarm": null
  },
  {
    "id": "7c865d55-51b5-4ac2-a0a0-38ba6414b60f",
    "locationName": "Villa Jaragua (Neyba)",
    "cellId": "S5096",
    "address": null,
    "latitude": 18.492472,
    "longitude": -71.486917,
    "userId": null,
    "getRoutes": [],
    "getAlarm": null
  },
  {
    "id": "3b19f34a-d8d6-48af-a16e-390405933334",
    "locationName": "SOLUCION IB - COLINAS MALL",
    "cellId": "N3444",
    "address": null,
    "latitude": 19.474853,
    "longitude": -70.715754,
    "userId": null,
    "getRoutes": [],
    "getAlarm": null
  },
  {
    "id": "40598ceb-be3e-4f26-a96e-391ae8704dbf",
    "locationName": "COW C0109 La Sirena (HiperOle)",
    "cellId": "C0109",
    "address": null,
    "latitude": 18.418937,
    "longitude": -69.45725,
    "userId": null,
    "getRoutes": [],
    "getAlarm": null
  },
  {
    "id": "c6d6939b-21dd-455f-b35d-391ca66ca4d4",
    "locationName": "Polvorin",
    "cellId": "M1067",
    "address": null,
    "latitude": 18.51894,
    "longitude": -69.91408,
    "userId": null,
    "getRoutes": [],
    "getAlarm": null
  },
  {
    "id": "fa16e2b6-c990-464f-a7b1-39364a6770c6",
    "locationName": "Tenares II",
    "cellId": "N3316",
    "address": null,
    "latitude": 19.38077,
    "longitude": -70.3503,
    "userId": null,
    "getRoutes": [],
    "getAlarm": null
  },
  {
    "id": "2aec8074-829c-4b7d-b6b5-3941698250b3",
    "locationName": "San Luis",
    "cellId": "N3154",
    "address": null,
    "latitude": 19.45296,
    "longitude": -70.70253,
    "userId": null,
    "getRoutes": [],
    "getAlarm": null
  },
  {
    "id": "db06357c-1644-4d9f-b58d-39b09fe178b3",
    "locationName": "La Peña",
    "cellId": "N3080",
    "address": null,
    "latitude": 19.26332,
    "longitude": -70.18726,
    "userId": null,
    "getRoutes": [],
    "getAlarm": null
  },
  {
    "id": "83db2b1d-2229-4991-bf10-39db063c0f47",
    "locationName": "Emely Tours",
    "cellId": "M1252",
    "address": null,
    "latitude": 18.47031,
    "longitude": -69.92495,
    "userId": null,
    "getRoutes": [],
    "getAlarm": null
  },
  {
    "id": "89fd2394-4140-4e70-88f0-3a0edbc5e635",
    "locationName": "Av. Italia Santo Domingo",
    "cellId": "M1348",
    "address": null,
    "latitude": 18.44853973,
    "longitude": -69.93531799,
    "userId": null,
    "getRoutes": [],
    "getAlarm": null
  },
  {
    "id": "dabd6eb5-4618-40a9-83fa-3a3c011ea7ad",
    "locationName": "Herrera",
    "cellId": "M1029",
    "address": null,
    "latitude": 18.45202,
    "longitude": -69.98091,
    "userId": null,
    "getRoutes": [],
    "getAlarm": null
  },
  {
    "id": "ab46df61-3486-4154-9b44-3a46363f7e30",
    "locationName": "Residencial moca",
    "cellId": "N3468",
    "address": null,
    "latitude": 19.39331,
    "longitude": -70.53311,
    "userId": null,
    "getRoutes": [],
    "getAlarm": null
  },
  {
    "id": "043e75fa-e6a3-4a2f-8df0-3a4c3e409161",
    "locationName": "Los Guanabanos II(La Isleta)",
    "cellId": "N3231",
    "address": null,
    "latitude": 19.3656,
    "longitude": -70.5343,
    "userId": null,
    "getRoutes": [],
    "getAlarm": null
  },
  {
    "id": "a380a369-f613-43df-b051-3a636a301970",
    "locationName": "Comedero Arriba",
    "cellId": "N3507",
    "address": null,
    "latitude": 19.0543,
    "longitude": -70.30727,
    "userId": null,
    "getRoutes": [],
    "getAlarm": null
  },
  {
    "id": "15c9476c-02c6-49f8-8b1d-3ac822cb0358",
    "locationName": "Turey Aut. Duarte",
    "cellId": "N3518",
    "address": null,
    "latitude": 18.77398,
    "longitude": -70.2423,
    "userId": null,
    "getRoutes": [],
    "getAlarm": null
  },
  {
    "id": "ab18ab34-4b6c-4c88-92c0-3add1751b1d7",
    "locationName": "Sabana Perdida 3",
    "cellId": "M1194",
    "address": null,
    "latitude": 18.52659,
    "longitude": -69.86982,
    "userId": null,
    "getRoutes": [],
    "getAlarm": null
  },
  {
    "id": "d23df81b-fd00-45c4-a6aa-3adf0d40f4d6",
    "locationName": "Cañafistol",
    "cellId": "S5198",
    "address": null,
    "latitude": 18.281062,
    "longitude": -70.36905,
    "userId": null,
    "getRoutes": [],
    "getAlarm": null
  },
  {
    "id": "a3e74886-5793-4145-9dc7-3afe8bab058a",
    "locationName": "Barranquita",
    "cellId": "N3009",
    "address": null,
    "latitude": 19.43836,
    "longitude": -70.73088,
    "userId": null,
    "getRoutes": [],
    "getAlarm": null
  },
  {
    "id": "534a1f89-9674-49df-b248-3b3bd5e9f957",
    "locationName": "COW Palma Real Paradisus",
    "cellId": "M0097",
    "address": null,
    "latitude": 18.676794,
    "longitude": -68.413377,
    "userId": null,
    "getRoutes": [],
    "getAlarm": null
  },
  {
    "id": "b89f5687-f118-4f94-a59b-3b5e5e29b0ae",
    "locationName": "Jacagua – El Higuero",
    "cellId": "M1332",
    "address": null,
    "latitude": 18.5447998,
    "longitude": -69.96060181,
    "userId": null,
    "getRoutes": [],
    "getAlarm": null
  },
  {
    "id": "51e8f4c9-b50e-48fa-bcd8-3b689ae7b66a",
    "locationName": "La Marga",
    "cellId": "N3078",
    "address": null,
    "latitude": 19.23506,
    "longitude": -70.3252,
    "userId": null,
    "getRoutes": [],
    "getAlarm": null
  },
  {
    "id": "1b99c294-fe4c-42ad-8cc7-3b7b7e0495ec",
    "locationName": "Luperon C.O.",
    "cellId": "M1053",
    "address": null,
    "latitude": 18.49315,
    "longitude": -69.89317,
    "userId": null,
    "getRoutes": [],
    "getAlarm": null
  },
  {
    "id": "d4225b24-59b3-4d53-be50-3b881dd5a69f",
    "locationName": "Punta Cana III",
    "cellId": "E6082",
    "address": null,
    "latitude": 18.52284,
    "longitude": -68.37588,
    "userId": null,
    "getRoutes": [],
    "getAlarm": null
  },
  {
    "id": "58746615-3dfb-4b00-acaf-3bc8852564e1",
    "locationName": "El Guanabano",
    "cellId": "N3043",
    "address": null,
    "latitude": 19.59345,
    "longitude": -70.83873,
    "userId": null,
    "getRoutes": [],
    "getAlarm": null
  },
  {
    "id": "16be8ded-f0d0-4405-bc40-3bfb189ed913",
    "locationName": "Franconia",
    "cellId": "M1186",
    "address": null,
    "latitude": 18.48778,
    "longitude": -69.82562,
    "userId": null,
    "getRoutes": [],
    "getAlarm": null
  },
  {
    "id": "e1279a2a-0f45-4fe2-9958-3c07d163c530",
    "locationName": "Km. 77 Aut. Duarte Sharing",
    "cellId": "N3237",
    "address": null,
    "latitude": 18.85041,
    "longitude": -70.33684,
    "userId": null,
    "getRoutes": [],
    "getAlarm": null
  },
  {
    "id": "2dcaeade-67e7-4651-9d2b-3c86829eaf29",
    "locationName": "Villa Hermosa  (Romana V)",
    "cellId": "E6114",
    "address": null,
    "latitude": 18.44191,
    "longitude": -69.01204,
    "userId": null,
    "getRoutes": [],
    "getAlarm": null
  },
  {
    "id": "5f37faab-c1f2-43d4-89a3-3c9909dc5ef1",
    "locationName": "La Ermita",
    "cellId": "N3076",
    "address": null,
    "latitude": 19.63098,
    "longitude": -70.20852,
    "userId": null,
    "getRoutes": [],
    "getAlarm": null
  },
  {
    "id": "f720a1e1-b396-4737-abe5-3cbc81d4a489",
    "locationName": "DAS Remoto 30 de Marzo (Banco Central)",
    "cellId": "M1301",
    "address": null,
    "latitude": 18.472813,
    "longitude": -69.905663,
    "userId": null,
    "getRoutes": [],
    "getAlarm": null
  },
  {
    "id": "d7f8daaa-38e0-4a8d-8125-3cc1023e45a5",
    "locationName": "Bella Vista ORM",
    "cellId": "M1107",
    "address": null,
    "latitude": 18.45489,
    "longitude": -69.94688,
    "userId": null,
    "getRoutes": [],
    "getAlarm": null
  },
  {
    "id": "b75edadb-05e5-4618-9c45-3cd0bf8ec00a",
    "locationName": "Asociacion Popular de Ahorros",
    "cellId": "M1220",
    "address": null,
    "latitude": 18.47555,
    "longitude": -69.9141,
    "userId": null,
    "getRoutes": [],
    "getAlarm": null
  },
  {
    "id": "ca4967af-f04c-4d3a-bdf1-3ce1a486f90d",
    "locationName": "La Rancha - San Juan",
    "cellId": "S5230",
    "address": null,
    "latitude": 18.7778492,
    "longitude": -71.5181,
    "userId": null,
    "getRoutes": [],
    "getAlarm": null
  },
  {
    "id": "5ff9fe9f-ec0e-4df7-abbf-3d0aa724e0ed",
    "locationName": "El Pino(Los Almacigos)",
    "cellId": "N4003",
    "address": null,
    "latitude": 19.43775,
    "longitude": -71.47572,
    "userId": null,
    "getRoutes": [],
    "getAlarm": null
  },
  {
    "id": "0a0b6719-c9bd-43d8-98c9-3d21b21155a6",
    "locationName": "Cachon ( Barahona )",
    "cellId": "S5103",
    "address": null,
    "latitude": 18.24796,
    "longitude": -71.18632,
    "userId": null,
    "getRoutes": [],
    "getAlarm": null
  },
  {
    "id": "de3e3227-2e8f-4215-ba37-3d3ca9cf1b58",
    "locationName": "El Brisal",
    "cellId": "M1021",
    "address": null,
    "latitude": 18.50851,
    "longitude": -69.8469,
    "userId": null,
    "getRoutes": [],
    "getAlarm": null
  },
  {
    "id": "023e1912-da74-40b6-b722-3dab1a5c160c",
    "locationName": "Los Peralejos",
    "cellId": "M1372",
    "address": null,
    "latitude": 18.5082,
    "longitude": -69.9958,
    "userId": null,
    "getRoutes": [],
    "getAlarm": null
  },
  {
    "id": "456382b4-900e-4e5a-94cc-3e0ebe3c5542",
    "locationName": "Paradisus Palma Real",
    "cellId": "E6193",
    "address": null,
    "latitude": 18.676328,
    "longitude": -68.4164327,
    "userId": null,
    "getRoutes": [],
    "getAlarm": null
  },
  {
    "id": "acf750ca-a8bd-4cf8-bd3c-3e2c0e32cfcf",
    "locationName": "Club de Leones, Ens. Ozama",
    "cellId": "M1378",
    "address": null,
    "latitude": 18.489275,
    "longitude": -69.868506,
    "userId": null,
    "getRoutes": [],
    "getAlarm": null
  },
  {
    "id": "116b40fe-804d-4b77-b75d-3e8e273bbcc6",
    "locationName": "Las Petacas Rptr",
    "cellId": "S5131",
    "address": null,
    "latitude": 18.57372,
    "longitude": -71.44806,
    "userId": null,
    "getRoutes": [],
    "getAlarm": null
  },
  {
    "id": "68a52d07-bfcb-4295-88fe-3ec984987e2a",
    "locationName": "Aeropuerto Cibao",
    "cellId": "N3002",
    "address": null,
    "latitude": 19.39971,
    "longitude": -70.60161,
    "userId": null,
    "getRoutes": [],
    "getAlarm": null
  },
  {
    "id": "cf8caf72-00e6-42e5-aa24-3ed3aed9b4e1",
    "locationName": "Las Matas de Farfan",
    "cellId": "S5040",
    "address": null,
    "latitude": 18.87358,
    "longitude": -71.52188,
    "userId": null,
    "getRoutes": [],
    "getAlarm": null
  },
  {
    "id": "d146ffd6-1dc9-4eb8-af69-3eedaa804295",
    "locationName": "Cruce De Pavón",
    "cellId": "E6017",
    "address": null,
    "latitude": 18.700167,
    "longitude": -68.952222,
    "userId": null,
    "getRoutes": [],
    "getAlarm": null
  },
  {
    "id": "19461d0f-d76e-43e1-9907-3f3a8c716ff7",
    "locationName": "El Pino",
    "cellId": "N3045",
    "address": null,
    "latitude": 19.14004,
    "longitude": -70.46793,
    "userId": null,
    "getRoutes": [],
    "getAlarm": null
  },
  {
    "id": "25fa049b-efd2-42e0-8d67-3f6828d3cd14",
    "locationName": "Villa San Carlos  (Romana )",
    "cellId": "E6202",
    "address": null,
    "latitude": 18.43893,
    "longitude": -68.98371,
    "userId": null,
    "getRoutes": [],
    "getAlarm": null
  },
  {
    "id": "f5569e69-5e3a-4a87-b84a-3f6adee1a9dd",
    "locationName": "La Romana 4",
    "cellId": "E6047",
    "address": null,
    "latitude": 18.41816,
    "longitude": -68.96535,
    "userId": null,
    "getRoutes": [],
    "getAlarm": null
  },
  {
    "id": "0f619c8a-cc59-46df-8578-3fab594e438c",
    "locationName": "Anamuya - Higuey",
    "cellId": "E6231",
    "address": null,
    "latitude": 18.714636,
    "longitude": -68.656458,
    "userId": null,
    "getRoutes": [],
    "getAlarm": null
  },
  {
    "id": "8421a910-ce75-4ef4-b670-3fdd051de482",
    "locationName": "Playa Dorada",
    "cellId": "N3132",
    "address": null,
    "latitude": 19.76069,
    "longitude": -70.65144,
    "userId": null,
    "getRoutes": [],
    "getAlarm": null
  },
  {
    "id": "57da63c5-b4ab-4374-ac46-4021d95310c3",
    "locationName": "Bayaguana",
    "cellId": "E6006",
    "address": null,
    "latitude": 18.75685,
    "longitude": -69.63847,
    "userId": null,
    "getRoutes": [],
    "getAlarm": null
  },
  {
    "id": "a552ffc3-db4b-4712-b093-403a4ad48192",
    "locationName": "El Puerto",
    "cellId": "E6135",
    "address": null,
    "latitude": 18.7605,
    "longitude": -69.4626,
    "userId": null,
    "getRoutes": [],
    "getAlarm": null
  },
  {
    "id": "b223ad6c-b1fd-41ad-bb36-405d3f0494f2",
    "locationName": "Los Multis Alcarrizos",
    "cellId": "M1196",
    "address": null,
    "latitude": 18.5248,
    "longitude": -70.0192,
    "userId": null,
    "getRoutes": [],
    "getAlarm": null
  },
  {
    "id": "42afecab-944c-4890-87ae-4072979ae423",
    "locationName": "Zona Franca de la Vega",
    "cellId": "N3232",
    "address": null,
    "latitude": 19.25023,
    "longitude": -70.55692,
    "userId": null,
    "getRoutes": [],
    "getAlarm": null
  },
  {
    "id": "f9bdd693-6044-4403-af98-407518ae0b25",
    "locationName": "Los Limones Monteplata",
    "cellId": "E6156",
    "address": null,
    "latitude": 19.01877,
    "longitude": -69.72852,
    "userId": null,
    "getRoutes": [],
    "getAlarm": null
  },
  {
    "id": "c8d37bfc-ea52-483b-b004-40951c4b6bb1",
    "locationName": "Duveaux",
    "cellId": "S5266",
    "address": null,
    "latitude": 18.30818,
    "longitude": -70.14968,
    "userId": null,
    "getRoutes": [],
    "getAlarm": null
  },
  {
    "id": "f3e58146-2d78-4afc-9d9a-40b0ebc12cf5",
    "locationName": "La Ciénaga Santo Domingo (Pueblo Chico) Sharing ALTICE",
    "cellId": "M1421",
    "address": null,
    "latitude": 18.503209,
    "longitude": -70.016879,
    "userId": null,
    "getRoutes": [],
    "getAlarm": null
  },
  {
    "id": "427e3f75-b075-447e-bd3a-4118f05ce35d",
    "locationName": "Campo de Golf Las Aromas",
    "cellId": "N3481",
    "address": null,
    "latitude": 19.44293,
    "longitude": -70.71219,
    "userId": null,
    "getRoutes": [],
    "getAlarm": null
  },
  {
    "id": "aa1d1e0a-0181-4a42-ab6b-41777dd76048",
    "locationName": "La Cuaba",
    "cellId": "M1199",
    "address": null,
    "latitude": 18.6504,
    "longitude": -70.064,
    "userId": null,
    "getRoutes": [],
    "getAlarm": null
  },
  {
    "id": "777f5421-b1a8-4b5b-bc72-417c2a72a5b9",
    "locationName": "El Limón, Samaná",
    "cellId": "N3185",
    "address": null,
    "latitude": 19.28924,
    "longitude": -69.43476,
    "userId": null,
    "getRoutes": [],
    "getAlarm": null
  },
  {
    "id": "3950978d-3421-4dcb-9be4-41df0f373dd7",
    "locationName": "El Rodeo, Monción",
    "cellId": "N3298",
    "address": null,
    "latitude": 19.39991,
    "longitude": -71.16154,
    "userId": null,
    "getRoutes": [],
    "getAlarm": null
  },
  {
    "id": "e7976763-cfa0-4494-af99-41dfef120836",
    "locationName": "Sabana de Nisibón",
    "cellId": "E6161",
    "address": null,
    "latitude": 18.95441,
    "longitude": -68.8104459,
    "userId": null,
    "getRoutes": [],
    "getAlarm": null
  },
  {
    "id": "adb106aa-40ce-44b6-95c6-4231cb4e6a49",
    "locationName": "Altos De Chavón, La Romana",
    "cellId": "E6002",
    "address": null,
    "latitude": 18.42445,
    "longitude": -68.89334,
    "userId": null,
    "getRoutes": [],
    "getAlarm": null
  },
  {
    "id": "84fc2ac3-28eb-4a79-813f-425e674d60b5",
    "locationName": "Villa Elisa",
    "cellId": "N3166",
    "address": null,
    "latitude": 19.68778,
    "longitude": -71.27222,
    "userId": null,
    "getRoutes": [],
    "getAlarm": null
  },
  {
    "id": "0540ec86-b48f-4ea0-b149-42b9bc877bb0",
    "locationName": "C Altagracia - Villa Velásquez SPM",
    "cellId": "E6237",
    "address": null,
    "latitude": 18.457581,
    "longitude": -69.305561,
    "userId": null,
    "getRoutes": [],
    "getAlarm": null
  },
  {
    "id": "308bc78a-b429-435c-865c-42d8ef305eb1",
    "locationName": "Televida",
    "cellId": "M1092",
    "address": null,
    "latitude": 18.49016,
    "longitude": -69.904,
    "userId": null,
    "getRoutes": [],
    "getAlarm": null
  },
  {
    "id": "733a0ece-230b-435b-95e6-43325a00c77f",
    "locationName": "Guerra - Guavaberry_II",
    "cellId": "E6069",
    "address": null,
    "latitude": 18.512,
    "longitude": -69.6271,
    "userId": null,
    "getRoutes": [],
    "getAlarm": null
  },
  {
    "id": "c0f758c6-af93-47f1-bf3d-43a7fef7883f",
    "locationName": "Cotui",
    "cellId": "N3029",
    "address": null,
    "latitude": 19.05994,
    "longitude": -70.15381,
    "userId": null,
    "getRoutes": [],
    "getAlarm": null
  },
  {
    "id": "fa69f9ca-7b29-4365-a193-43ce053f8c0c",
    "locationName": "Av. Libertad San Francisco",
    "cellId": "N3564",
    "address": null,
    "latitude": 19.29816,
    "longitude": -70.25243,
    "userId": null,
    "getRoutes": [],
    "getAlarm": null
  },
  {
    "id": "863a4fcf-5249-44c2-b8d7-43cf9f1db9d2",
    "locationName": "Cap Cana 3-Antillas I",
    "cellId": "E6084",
    "address": null,
    "latitude": 18.50616,
    "longitude": -68.38035,
    "userId": null,
    "getRoutes": [],
    "getAlarm": null
  },
  {
    "id": "71f18244-e606-4f82-a0de-43dafcc06b2a",
    "locationName": "Canca La Reina, Moca",
    "cellId": "N3205",
    "address": null,
    "latitude": 19.43701,
    "longitude": -70.58473,
    "userId": null,
    "getRoutes": [],
    "getAlarm": null
  },
  {
    "id": "6b5d2c07-0cf3-4c4e-9825-43ffa255e3fd",
    "locationName": "Pueblo Nuevo Veron",
    "cellId": "E6242",
    "address": null,
    "latitude": 18.6068,
    "longitude": -68.4204,
    "userId": null,
    "getRoutes": [],
    "getAlarm": null
  },
  {
    "id": "c5fbc7a1-b024-42a3-abb1-444099097d54",
    "locationName": "Alto bandera",
    "cellId": "N3438",
    "address": null,
    "latitude": 18.81189,
    "longitude": -70.62703,
    "userId": null,
    "getRoutes": [],
    "getAlarm": null
  },
  {
    "id": "62fb689c-19b4-44ea-87fb-44a315fc4165",
    "locationName": "Barahona II",
    "cellId": "S5102",
    "address": null,
    "latitude": 18.19697,
    "longitude": -71.09618,
    "userId": null,
    "getRoutes": [],
    "getAlarm": null
  },
  {
    "id": "abb83a9c-99bd-4d3f-b071-44db796b5fa0",
    "locationName": "Las Matas,Carr.Angel Fant Las Guaranas 3",
    "cellId": "N3345",
    "address": null,
    "latitude": 19.10227,
    "longitude": -70.1709,
    "userId": null,
    "getRoutes": [],
    "getAlarm": null
  },
  {
    "id": "a364168b-aa48-45f1-b2a9-44f07fc929fe",
    "locationName": "San Pedro 3",
    "cellId": "E6062",
    "address": null,
    "latitude": 18.500427,
    "longitude": -69.303779,
    "userId": null,
    "getRoutes": [],
    "getAlarm": null
  },
  {
    "id": "acc5fefd-72a6-4308-8f77-4519c85e4254",
    "locationName": "Maguana Arriba",
    "cellId": "S5238",
    "address": null,
    "latitude": 18.93603,
    "longitude": -71.2622,
    "userId": null,
    "getRoutes": [],
    "getAlarm": null
  },
  {
    "id": "dff6cac8-1df1-4d93-a9cf-4524ea78521b",
    "locationName": "Isabelita",
    "cellId": "M1163",
    "address": null,
    "latitude": 18.4737,
    "longitude": -69.84332,
    "userId": null,
    "getRoutes": [],
    "getAlarm": null
  },